"_id",action,actions,address,adminArea,countryCode,countryName,createdAt,desc.floor,desc.metaDesc,desc.metaPhoto,desc.metaTitle,email,featureName,followers,gcmTokens.0,keywords.0,latitude,level,locality,longitude,name,owner,parent,password,phone,photos.0,point,read,roles,subLinks.0.id,subLinks.0.name,subLinks.0.owner,subLinks.0.type,subLinks.1.id,subLinks.1.name,subLinks.1.owner,subLinks.1.type,thoroughfare,type,updatedAt
56ba0759c7d621dd306f13f9,,[  ],충청북도 진천군 진천읍 상산로 65,충청북도,KR,대한민국,2016-02-09T15:35:53.481Z,,,,,,65,[  ],,,36.8549829697086,14.0,진천군,127.4412749615,진천읍 정보센터,,,,,,0,false,[  ],,,,,,,,,진천읍,INFO_CENTER,2016-02-09T15:35:53.481Z
56ba0759c7d621dd306f1408,,[  ],충청북도 서원구 남이면 척산길 7,충청북도,KR,대한민국,2016-02-09T15:35:53.492Z,,,,,,7,[  ],,,36.5604624782939,14.0,서원구,127.434053676727,남이면 정보센터,,,,,,0,false,[  ],,,,,,,,,남이면,INFO_CENTER,2016-02-09T15:35:53.492Z
56ba0759c7d621dd306f1412,,[  ],충청북도 서원구 현도면 선동1길 9,충청북도,KR,대한민국,2016-02-09T15:35:53.499Z,,,,,,9,[  ],,,36.4865497518155,14.0,서원구,127.424208710519,현도면 정보센터,,,,,,0,false,[  ],,,,,,,,,현도면,INFO_CENTER,2016-02-09T15:35:53.499Z
56ba0759c7d621dd306f1415,,[  ],충청북도 청원구 내수읍 마산3길 49,충청북도,KR,대한민국,2016-02-09T15:35:53.501Z,,,,,,49,[  ],,,36.7239132231625,14.0,청원구,127.534925380164,내수읍 정보센터,,,,,,0,false,[  ],,,,,,,,,내수읍,INFO_CENTER,2016-02-09T15:35:53.501Z
56ba0759c7d621dd306f142c,,[  ],충청북도 충주시 동량면 조돈안길 1,충청북도,KR,대한민국,2016-02-09T15:35:53.527Z,,,,,,1,[  ],,,37.0262650243184,14.0,충주시,127.96315882889,동량면 정보센터,,,,,,0,false,[  ],,,,,,,,,동량면,INFO_CENTER,2016-02-09T15:35:53.527Z
56ba0759c7d621dd306f1433,,[  ],충청북도 충주시 소태면 쟁골1길 1,충청북도,KR,대한민국,2016-02-09T15:35:53.532Z,,,,,,1,[  ],,,37.1098059973189,14.0,충주시,127.847460293511,소태면 정보센터,,,,,,0,false,[  ],,,,,,,,,소태면,INFO_CENTER,2016-02-09T15:35:53.532Z
56ba0759c7d621dd306f13a5,,[  ],충청남도 홍성군 홍성읍 아문길 31,충청남도,KR,대한민국,2016-02-09T15:35:53.419Z,,,,,,31,[  ],,,36.6016856617082,14.0,홍성군,126.662131885526,홍성읍 정보센터,,,,,,0,false,[  ],,,,,,,,,홍성읍,INFO_CENTER,2016-02-09T15:35:53.419Z
56ba0759c7d621dd306f13a8,,[  ],충청북도 괴산군 문광면 광덕길 27,충청북도,KR,대한민국,2016-02-09T15:35:53.422Z,,,,,,27,[  ],,,36.7901730502233,14.0,괴산군,127.785090523327,문광면 정보센터,,,,,,0,false,[  ],,,,,,,,,문광면,INFO_CENTER,2016-02-09T15:35:53.422Z
56ba0759c7d621dd306f13a9,,[  ],충청북도 괴산군 불정면 목도로 25,충청북도,KR,대한민국,2016-02-09T15:35:53.422Z,,,,,,25,[  ],,,36.8723190454448,14.0,괴산군,127.854138181134,불정면 정보센터,,,,,,0,false,[  ],,,,,,,,,불정면,INFO_CENTER,2016-02-09T15:35:53.422Z
56ba0759c7d621dd306f13b0,,[  ],충청북도 괴산군 칠성면 도정로 61,충청북도,KR,대한민국,2016-02-09T15:35:53.427Z,,,,,,61,[  ],,,36.787887144032,14.0,괴산군,127.863721973361,칠성면 정보센터,,,,,,0,false,[  ],,,,,,,,,칠성면,INFO_CENTER,2016-02-09T15:35:53.427Z
56ba0759c7d621dd306f13b2,,[  ],충청북도 단양군 단성면 충혼로 16,충청북도,KR,대한민국,2016-02-09T15:35:53.429Z,,,,,,16,[  ],,,36.9367912067841,14.0,단양군,128.32361075532,단성면 정보센터,,,,,,0,false,[  ],,,,,,,,,단성면,INFO_CENTER,2016-02-09T15:35:53.429Z
56ba0759c7d621dd306f13b3,,[  ],충청북도 단양군 단양읍 중앙1로 35,충청북도,KR,대한민국,2016-02-09T15:35:53.429Z,,,,,,35,[  ],,,36.9868232972924,14.0,단양군,128.368092083284,단양읍 정보센터,,,,,,0,false,[  ],,,,,,,,,단양읍,INFO_CENTER,2016-02-09T15:35:53.429Z
56ba0759c7d621dd306f13b4,,[  ],충청북도 단양군 대강면 대강로 74,충청북도,KR,대한민국,2016-02-09T15:35:53.430Z,,,,,,74,[  ],,,36.9224763953161,14.0,단양군,128.352343551133,대강면 정보센터,,,,,,0,false,[  ],,,,,,,,,대강면,INFO_CENTER,2016-02-09T15:35:53.430Z
56ba0759c7d621dd306f13bb,,[  ],충청북도 보은군 보은읍 삼산로 50,충청북도,KR,대한민국,2016-02-09T15:35:53.435Z,,,,,,50,[  ],,,36.4835854154131,14.0,보은군,127.716967963224,보은읍 정보센터,,,,,,0,false,[  ],,,,,,,,,보은읍,INFO_CENTER,2016-02-09T15:35:53.435Z
56ba0759c7d621dd306f13bc,,[  ],충청북도 보은군 산외면 구티길 65,충청북도,KR,대한민국,2016-02-09T15:35:53.436Z,,,,,,65,[  ],,,36.5520193344866,14.0,보은군,127.732691201801,산외면 정보센터,,,,,,0,false,[  ],,,,,,,,,산외면,INFO_CENTER,2016-02-09T15:35:53.436Z
56ba0759c7d621dd306f13c0,,[  ],충청북도 보은군 장안면 장안로 37,충청북도,KR,대한민국,2016-02-09T15:35:53.439Z,,,,,,37,[  ],,,36.4697415541389,14.0,보은군,127.788759743121,장안면 정보센터,,,,,,0,false,[  ],,,,,,,,,장안면,INFO_CENTER,2016-02-09T15:35:53.439Z
56ba0759c7d621dd306f13c1,,[  ],충청북도 보은군 탄부면 하장2길 15,충청북도,KR,대한민국,2016-02-09T15:35:53.440Z,,,,,,15,[  ],,,36.4301327787433,14.0,보은군,127.796097962249,탄부면 정보센터,,,,,,0,false,[  ],,,,,,,,,탄부면,INFO_CENTER,2016-02-09T15:35:53.440Z
56ba0759c7d621dd306f13c3,,[  ],충청북도 보은군 회인면 회인로 81,충청북도,KR,대한민국,2016-02-09T15:35:53.441Z,,,,,,81,[  ],,,36.4948528923415,14.0,보은군,127.596547842197,회인면 정보센터,,,,,,0,false,[  ],,,,,,,,,회인면,INFO_CENTER,2016-02-09T15:35:53.441Z
56ba0759c7d621dd306f13c7,,[  ],충청북도 영동군 양강면 괴목로 17,충청북도,KR,대한민국,2016-02-09T15:35:53.444Z,,,,,,17,[  ],,,36.1524586234265,14.0,영동군,127.750962760697,양강면 정보센터,,,,,,0,false,[  ],,,,,,,,,양강면,INFO_CENTER,2016-02-09T15:35:53.444Z
56ba0759c7d621dd306f13cd,,[  ],충청북도 영동군 학산면 서산로 76,충청북도,KR,대한민국,2016-02-09T15:35:53.448Z,,,,,,76,[  ],,,36.0994067668134,14.0,영동군,127.684873683202,학산면 정보센터,,,,,,0,false,[  ],,,,,,,,,학산면,INFO_CENTER,2016-02-09T15:35:53.448Z
56ba0759c7d621dd306f13ce,,[  ],충청북도 영동군 황간면 남성2길 11,충청북도,KR,대한민국,2016-02-09T15:35:53.449Z,,,,,,11,[  ],,,36.2284312178939,14.0,영동군,127.910441268878,황간면 정보센터,,,,,,0,false,[  ],,,,,,,,,황간면,INFO_CENTER,2016-02-09T15:35:53.449Z
56ba0759c7d621dd306f13cf,,[  ],충청북도 옥천군 군북면 이백길 8,충청북도,KR,대한민국,2016-02-09T15:35:53.450Z,,,,,,8,[  ],,,36.3298887789356,14.0,옥천군,127.534482307286,군북면 정보센터,,,,,,0,false,[  ],,,,,,,,,군북면,INFO_CENTER,2016-02-09T15:35:53.450Z
56ba0759c7d621dd306f13d1,,[  ],충청북도 옥천군 동이면 평산4길 2,충청북도,KR,대한민국,2016-02-09T15:35:53.451Z,,,,,,2,[  ],,,36.2835614250617,14.0,옥천군,127.620278196373,동이면 정보센터,,,,,,0,false,[  ],,,,,,,,,동이면,INFO_CENTER,2016-02-09T15:35:53.451Z
56ba0759c7d621dd306f13d2,,[  ],충청북도 옥천군 안남면 연주길 46,충청북도,KR,대한민국,2016-02-09T15:35:53.452Z,,,,,,46,[  ],,,36.3561930763997,14.0,옥천군,127.672726681001,안남면 정보센터,,,,,,0,false,[  ],,,,,,,,,안남면,INFO_CENTER,2016-02-09T15:35:53.452Z
56ba0759c7d621dd306f13d3,,[  ],충청북도 옥천군 안내면 현리길 66,충청북도,KR,대한민국,2016-02-09T15:35:53.453Z,,,,,,66,[  ],,,36.3944919118401,14.0,옥천군,127.662480776345,안내면 정보센터,,,,,,0,false,[  ],,,,,,,,,안내면,INFO_CENTER,2016-02-09T15:35:53.453Z
56ba0759c7d621dd306f13d4,,[  ],충청북도 옥천군 옥천읍 동부로 15,충청북도,KR,대한민국,2016-02-09T15:35:53.453Z,,,,,,15,[  ],,,36.3065712436327,14.0,옥천군,127.574623889747,옥천읍 정보센터,,,,,,0,false,[  ],,,,,,,,,옥천읍,INFO_CENTER,2016-02-09T15:35:53.453Z
56ba0759c7d621dd306f13d5,,[  ],충청북도 옥천군 이원면 신흥1길 14,충청북도,KR,대한민국,2016-02-09T15:35:53.454Z,,,,,,14,[  ],,,36.2462386585561,14.0,옥천군,127.619502504305,이원면 정보센터,,,,,,0,false,[  ],,,,,,,,,이원면,INFO_CENTER,2016-02-09T15:35:53.454Z
56ba0759c7d621dd306f13d6,,[  ],충청북도 옥천군 청산면 지전1길 29,충청북도,KR,대한민국,2016-02-09T15:35:53.455Z,,,,,,29,[  ],,,36.3463824682908,14.0,옥천군,127.791924947079,청산면 정보센터,,,,,,0,false,[  ],,,,,,,,,청산면,INFO_CENTER,2016-02-09T15:35:53.455Z
56ba0759c7d621dd306f13d7,,[  ],충청북도 옥천군 청성면 산계길 53,충청북도,KR,대한민국,2016-02-09T15:35:53.456Z,,,,,,53,[  ],,,36.3276176654439,14.0,옥천군,127.759576157452,청성면 정보센터,,,,,,0,false,[  ],,,,,,,,,청성면,INFO_CENTER,2016-02-09T15:35:53.456Z
56ba0759c7d621dd306f13db,,[  ],충청북도 음성군 맹동면 대동로 33,충청북도,KR,대한민국,2016-02-09T15:35:53.458Z,,,,,,33,[  ],,,36.9301664864554,14.0,음성군,127.56239849905,맹동면 정보센터,,,,,,0,false,[  ],,,,,,,,,맹동면,INFO_CENTER,2016-02-09T15:35:53.458Z
56ba0759c7d621dd306f13df,,[  ],충청북도 음성군 원남면 원중로 19,충청북도,KR,대한민국,2016-02-09T15:35:53.461Z,,,,,,19,[  ],,,36.8750677021728,14.0,음성군,127.64855920623,원남면 정보센터,,,,,,0,false,[  ],,,,,,,,,원남면,INFO_CENTER,2016-02-09T15:35:53.461Z
56ba0759c7d621dd306f13e0,,[  ],충청북도 음성군 음성읍 수정로 37,충청북도,KR,대한민국,2016-02-09T15:35:53.462Z,,,,,,37,[  ],,,36.9351203521704,14.0,음성군,127.690572299636,음성읍 정보센터,,,,,,0,false,[  ],,,,,,,,,음성읍,INFO_CENTER,2016-02-09T15:35:53.462Z
56ba0759c7d621dd306f13e2,,[  ],충청북도 제천시 청풍호로 1045,충청북도,KR,대한민국,2016-02-09T15:35:53.463Z,,,,,,,[  ],,,37.0618247153166,14.0,제천시,128.168411661047,금성면 정보센터,,,,,,0,false,[  ],,,,,,,,,금성면,INFO_CENTER,2016-02-09T15:35:53.463Z
56ba0759c7d621dd306f13e4,,[  ],충청북도 제천시 덕산면 약초로 59,충청북도,KR,대한민국,2016-02-09T15:35:53.465Z,,,,,,59,[  ],,,36.9120368824525,14.0,제천시,128.164399212552,덕산면 정보센터,,,,,,0,false,[  ],,,,,,,,,덕산면,INFO_CENTER,2016-02-09T15:35:53.465Z
56ba0759c7d621dd306f13e6,,[  ],충청북도 제천시 주포로 83,충청북도,KR,대한민국,2016-02-09T15:35:53.467Z,,,,,,,[  ],,,37.1328484547916,14.0,제천시,128.121563123179,봉양읍 정보센터,,,,,,0,false,[  ],,,,,,,,,봉양읍,INFO_CENTER,2016-02-09T15:35:53.467Z
56ba0759c7d621dd306f13f3,,[  ],충청북도 증평군 증평읍 광장로 88,충청북도,KR,대한민국,2016-02-09T15:35:53.477Z,,,,,,88,[  ],,,36.7853772255106,14.0,증평군,127.581521773806,증평읍 정보센터,,,,,,0,false,[  ],,,,,,,,,증평읍,INFO_CENTER,2016-02-09T15:35:53.477Z
56ba0759c7d621dd306f13f6,,[  ],충청북도 진천군 문백면 옥성1길 21,충청북도,KR,대한민국,2016-02-09T15:35:53.479Z,,,,,,21,[  ],,,36.784434339803,14.0,진천군,127.437244883692,문백면 정보센터,,,,,,0,false,[  ],,,,,,,,,문백면,INFO_CENTER,2016-02-09T15:35:53.479Z
57030818206bdae42c31564c,,[  ],"서울특별시 동작구 노량진2동,서울특별시 동작구 노량진동  47-2,서울특별시 동작구 장승배기로 161 동작구청",서울특별시,KR,대한민국,2016-04-05T00:34:32.767Z,,,,,,47-2,[  ],,,37.512177,12,동작구,126.939461,아파트,56ba07dec7d621dd306f1441,56ba074fc7d621dd306f0636,,,,0,false,[  ],,,,,,,,,노량진2동,COMMUNITY,2016-04-05T00:34:32.767Z
57030818206bdae42c31564e,,[  ],서울특별시 동작구 여의대방로24길 106,서울특별시,KR,대한민국,2016-04-05T00:34:32.767Z,,,,,,,[  ],,,37.4989376659046,14,동작구,126.925864023486,아파트,56ba07dec7d621dd306f1441,56ba0758c7d621dd306f0ed2,,,,0,false,[  ],,,,,,,,,신대방2동,COMMUNITY,2016-04-05T00:34:32.767Z
57030c1e206bdae42c31564f,,[  ],"서울특별시 동작구 신대방2동,서울특별시 동작구 신대방동  395-69,서울특별시 동작구 보라매로5가길 16 보라매아카데미타워",서울특별시,KR,대한민국,2016-04-05T00:51:42.699Z,,,,,,395-69,[  ],,,37.491312378807756,18,동작구,126.92412178963423,이강훈,56c4b32cb48c49972b454d0f,56ba0985c7d621dd306f1445,,,,0,false,[  ],,,,,,,,,신대방2동,MEMBER,2016-04-05T00:51:42.699Z
57030c2a206bdae42c315652,,[  ],"서울특별시 동작구 신대방2동,서울특별시 동작구 신대방동  395-69,서울특별시 동작구 보라매로5가길 16 보라매아카데미타워",서울특별시,KR,대한민국,2016-04-05T00:51:54.156Z,,,,,,395-69,[  ],,,37.491312378807756,18,동작구,126.92412178963423,뭐하는곳이징 ㅋ,56c4b32cb48c49972b454d0f,56ba0985c7d621dd306f1445,,,,20,false,[  ],57030c54206bdae42c315657,그냥 커피숍 사진 찍어봄.,56ba07dec7d621dd306f1441,POST,5705f6fe3b90a1a17dbd5563,테스트,56ba07dec7d621dd306f1441,ADVERTISE,신대방2동,POST,2016-04-07T05:58:22.901Z
570fa2e7b59bb9600fceff9d,,[  ],전라남도 무안군 삼향읍 오룡길 1,전라남도,KR,대한민국,2016-04-14T14:02:15.624Z,,,,,,,[  ],,,34.8162291035686,8,,126.464225737659,민박,56ba07dec7d621dd306f1441,56ba074dc7d621dd306f058f,,,,0,false,[  ],,,,,,,,,,COMMUNITY,2016-04-14T14:02:15.624Z
57101e2a3c8a1347107a304a,,[  ],경기도 수원시 팔달구 효원로 1,경기도,KR,대한민국,2016-04-14T22:48:10.653Z,,,,,,,[  ],,,37.2746669752549,8,,127.009619973181,커피샵,56c4b32cb48c49972b454d0f,56ba074dc7d621dd306f0584,,,,0,false,[  ],,,,,,,,,,COMMUNITY,2016-04-14T22:48:10.653Z
571229a7fd7b3c337d439924,,[  ],"서울특별시 동작구 신대방2동,서울특별시 동작구 신대방동  395-67,서울특별시 동작구 보라매로5길 51 롯데타워",서울특별시,KR,대한민국,2016-04-16T12:01:43.705Z,,,,,,395-67,[  ],,,37.49074601288497,18,동작구,126.92313104867937,아파트,56ba07dec7d621dd306f1441,57122989fd7b3c337d439923,,,,0,false,[  ],,,,,,,,,신대방2동,KEYWORD,2016-04-16T12:01:43.705Z
56ba0759c7d621dd306f121b,,[  ],전라북도 부안군 위도면 진리안길 5,전라북도,KR,대한민국,2016-02-09T15:35:53.115Z,,,,,,5,[  ],,,35.6021929531236,14.0,부안군,126.292930043738,위도면 정보센터,,,,,,0,false,[  ],,,,,,,,,위도면,INFO_CENTER,2016-02-09T15:35:53.115Z
56ba0759c7d621dd306f121c,,[  ],전라북도 주산면 주산로 8,전라북도,KR,대한민국,2016-02-09T15:35:53.116Z,,,,,,,[  ],,,35.6717448540373,14.0,주산면,126.711248502009,주산면 정보센터,,,,,,0,false,[  ],,,,,,,,,주산면,INFO_CENTER,2016-02-09T15:35:53.116Z
56ba0759c7d621dd306f121d,,[  ],전라북도 부안군 줄포면 줄포4길 8,전라북도,KR,대한민국,2016-02-09T15:35:53.116Z,,,,,,8,[  ],,,35.5903275159786,14.0,부안군,126.677591420563,줄포면 정보센터,,,,,,0,false,[  ],,,,,,,,,줄포면,INFO_CENTER,2016-02-09T15:35:53.116Z
56ba0759c7d621dd306f1220,,[  ],전라북도 부안군 행안면 번영로 33,전라북도,KR,대한민국,2016-02-09T15:35:53.119Z,,,,,,33,[  ],,,35.7263669097973,14.0,부안군,126.724036384912,행안면 정보센터,,,,,,0,false,[  ],,,,,,,,,행안면,INFO_CENTER,2016-02-09T15:35:53.119Z
56ba0759c7d621dd306f1223,,[  ],전라북도 순창군 동계면 동계1길 15,전라북도,KR,대한민국,2016-02-09T15:35:53.121Z,,,,,,15,[  ],,,35.4412564124872,14.0,순창군,127.241928316913,동계면 정보센터,,,,,,0,false,[  ],,,,,,,,,동계면,INFO_CENTER,2016-02-09T15:35:53.121Z
56ba0759c7d621dd306f1232,,[  ],전라북도 완주군 삼례읍 삼례역로15,전라북도,KR,대한민국,2016-02-09T15:35:53.132Z,,,,,,,[  ],,,35.9093295797968,14.0,완주군,127.071649826196,삼례읍 정보센터,,,,,,0,false,[  ],,,,,,,,,삼례읍,INFO_CENTER,2016-02-09T15:35:53.132Z
56ba0759c7d621dd306f1237,,[  ],전라북도 완주군 이서면 이서로 55,전라북도,KR,대한민국,2016-02-09T15:35:53.135Z,,,,,,55,[  ],,,35.8205969588037,14.0,완주군,127.02245941171,이서면 정보센터,,,,,,0,false,[  ],,,,,,,,,이서면,INFO_CENTER,2016-02-09T15:35:53.135Z
56ba0759c7d621dd306f1239,,[  ],전라북도 익산시 금마면 고도3길,전라북도,KR,대한민국,2016-02-09T15:35:53.137Z,,,,,,,[  ],,,35.9944445010715,14.0,익산시,127.054647877921,금마면 정보센터,,,,,,0,false,[  ],,,,,,,,,금마면,INFO_CENTER,2016-02-09T15:35:53.137Z
56ba0759c7d621dd306f123d,,[  ],전라북도 익산시 중앙로 105 (마동),전라북도,KR,대한민국,2016-02-09T15:35:53.139Z,,,,,,(마동),[  ],,,35.9379023884076,14.0,익산시,126.958344010732,마동 정보센터,,,,,,0,false,[  ],,,,,,,,,마동,INFO_CENTER,2016-02-09T15:35:53.139Z
56ba0759c7d621dd306f1244,,[  ],전라북도 익산시 인북로 353 (신동),전라북도,KR,대한민국,2016-02-09T15:35:53.144Z,,,,,,(신동),[  ],,,35.9597746468805,14.0,익산시,126.96112159258,신동 정보센터,,,,,,0,false,[  ],,,,,,,,,신동,INFO_CENTER,2016-02-09T15:35:53.144Z
56ba0759c7d621dd306f124a,,[  ],전라북도 익산시 왕궁면 흥암1길 14,전라북도,KR,대한민국,2016-02-09T15:35:53.149Z,,,,,,14,[  ],,,35.9663064415584,14.0,익산시,127.087527957102,왕궁면 정보센터,,,,,,0,false,[  ],,,,,,,,,왕궁면,INFO_CENTER,2016-02-09T15:35:53.149Z
56ba0759c7d621dd306f124d,,[  ],전라북도 익산시 웅포면 강변로 9,전라북도,KR,대한민국,2016-02-09T15:35:53.159Z,,,,,,9,[  ],,,36.0644300861172,14.0,익산시,126.876910181924,웅포면 정보센터,,,,,,0,false,[  ],,,,,,,,,웅포면,INFO_CENTER,2016-02-09T15:35:53.159Z
56ba0759c7d621dd306f1253,,[  ],전라북도 익산시 함라면 함라1길 65,전라북도,KR,대한민국,2016-02-09T15:35:53.163Z,,,,,,65,[  ],,,36.0600942583015,14.0,익산시,126.910388166462,함라면 정보센터,,,,,,0,false,[  ],,,,,,,,,함라면,INFO_CENTER,2016-02-09T15:35:53.163Z
56ba0759c7d621dd306f1256,,[  ],전라북도 임실군 강진면 호국로 47,전라북도,KR,대한민국,2016-02-09T15:35:53.165Z,,,,,,47,[  ],,,35.5303436591745,14.0,임실군,127.16357187612,강진면 정보센터,,,,,,0,false,[  ],,,,,,,,,강진면,INFO_CENTER,2016-02-09T15:35:53.165Z
56ba0759c7d621dd306f1257,,[  ],전라북도 임실군 관촌면 사선1길 13,전라북도,KR,대한민국,2016-02-09T15:35:53.166Z,,,,,,13,[  ],,,35.6738233699621,14.0,임실군,127.270838616978,관촌면 정보센터,,,,,,0,false,[  ],,,,,,,,,관촌면,INFO_CENTER,2016-02-09T15:35:53.166Z
56ba0759c7d621dd306f125b,,[  ],전라북도 임실군 신덕면 수지로 94,전라북도,KR,대한민국,2016-02-09T15:35:53.169Z,,,,,,94,[  ],,,35.6838489724583,14.0,임실군,127.178157336812,신덕면 정보센터,,,,,,0,false,[  ],,,,,,,,,신덕면,INFO_CENTER,2016-02-09T15:35:53.169Z
56ba0759c7d621dd306f125d,,[  ],전라북도 임실군 오수면 삼일로 27,전라북도,KR,대한민국,2016-02-09T15:35:53.170Z,,,,,,27,[  ],,,35.5413360915323,14.0,임실군,127.326676277764,오수면 정보센터,,,,,,0,false,[  ],,,,,,,,,오수면,INFO_CENTER,2016-02-09T15:35:53.170Z
56ba0759c7d621dd306f126c,,[  ],전라북도 전주시 덕진구 여암2길 9,전라북도,KR,대한민국,2016-02-09T15:35:53.181Z,,,,,,9,[  ],,,35.8714169306737,14.0,전주시,127.075672821145,동산동 정보센터,,,,,,0,false,[  ],,,,,,,,,동산동,INFO_CENTER,2016-02-09T15:35:53.181Z
56ba0759c7d621dd306f126e,,[  ],전라북도 전주시 덕진구 두간9길 6,전라북도,KR,대한민국,2016-02-09T15:35:53.182Z,,,,,,6,[  ],,,35.8649033492501,14.0,전주시,127.115583695321,송천2동 정보센터,,,,,,0,false,[  ],,,,,,,,,송천2동,INFO_CENTER,2016-02-09T15:35:53.182Z
56ba0759c7d621dd306f1275,,[  ],전라북도 전주시 덕진구 벚꽃1길 8,전라북도,KR,대한민국,2016-02-09T15:35:53.188Z,,,,,,8,[  ],,,35.8278994965349,14.0,전주시,127.131439842072,진북동 정보센터,,,,,,0,false,[  ],,,,,,,,,진북동,INFO_CENTER,2016-02-09T15:35:53.188Z
56ba0759c7d621dd306f1276,,[  ],전라북도 전주시 덕진구 신복5길 6,전라북도,KR,대한민국,2016-02-09T15:35:53.189Z,,,,,,6,[  ],,,35.8536606776743,14.0,전주시,127.106281426736,팔복동 정보센터,,,,,,0,false,[  ],,,,,,,,,팔복동,INFO_CENTER,2016-02-09T15:35:53.189Z
56ba0759c7d621dd306f1278,,[  ],전라북도 전주시 완산구 인봉1길 54,전라북도,KR,대한민국,2016-02-09T15:35:53.190Z,,,,,,54,[  ],,,35.8244170052341,14.0,전주시,127.158374263939,노송동 정보센터,,,,,,0,false,[  ],,,,,,,,,노송동,INFO_CENTER,2016-02-09T15:35:53.190Z
56ba0759c7d621dd306f127f,,[  ],전라북도 전주시 완산구 강당2길 7,전라북도,KR,대한민국,2016-02-09T15:35:53.195Z,,,,,,7,[  ],,,35.8092288134303,14.0,전주시,127.134852293412,완산동 정보센터,,,,,,0,false,[  ],,,,,,,,,완산동,INFO_CENTER,2016-02-09T15:35:53.195Z
56ba0759c7d621dd306f128a,,[  ],전라북도 정읍시 감곡면 원삼1길 37,전라북도,KR,대한민국,2016-02-09T15:35:53.203Z,,,,,,37,[  ],,,35.7149094559285,14.0,정읍시,126.928475988804,감곡면 정보센터,,,,,,0,false,[  ],,,,,,,,,감곡면,INFO_CENTER,2016-02-09T15:35:53.203Z
56ba0759c7d621dd306f128d,,[  ],전라북도 정읍시 충정로 531-8,전라북도,KR,대한민국,2016-02-09T15:35:53.205Z,,,,,,,[  ],,,35.5833040315385,14.0,정읍시,126.828667885671,농소동 정보센터,,,,,,0,false,[  ],,,,,,,,,농소동,INFO_CENTER,2016-02-09T15:35:53.205Z
56ba0759c7d621dd306f128f,,[  ],전라북도 정읍시 북면 정읍북로 570,전라북도,KR,대한민국,2016-02-09T15:35:53.207Z,,,,,,570,[  ],,,35.6089673619326,14.0,정읍시,126.892458297029,북면 정보센터,,,,,,0,false,[  ],,,,,,,,,북면,INFO_CENTER,2016-02-09T15:35:53.207Z
56ba0759c7d621dd306f1292,,[  ],전라북도 정읍시 구계교암길 277,전라북도,KR,대한민국,2016-02-09T15:35:53.209Z,,,,,,,[  ],,,35.5500224443134,14.0,정읍시,126.837588077845,상교동 정보센터,,,,,,0,false,[  ],,,,,,,,,상교동,INFO_CENTER,2016-02-09T15:35:53.209Z
56ba0759c7d621dd306f1294,,[  ],전라북도 정읍시 수성택지3길 28,전라북도,KR,대한민국,2016-02-09T15:35:53.210Z,,,,,,,[  ],,,35.5789180983409,14.0,정읍시,126.857578159652,수성동 정보센터,,,,,,0,false,[  ],,,,,,,,,수성동,INFO_CENTER,2016-02-09T15:35:53.210Z
56ba0759c7d621dd306f1295,,[  ],전라북도 정읍시 벚꽃로 323,전라북도,KR,대한민국,2016-02-09T15:35:53.211Z,,,,,,,[  ],,,35.5652770684984,14.0,정읍시,126.849501349931,시기동 정보센터,,,,,,0,false,[  ],,,,,,,,,시기동,INFO_CENTER,2016-02-09T15:35:53.211Z
56ba0759c7d621dd306f1297,,[  ],전라북도 정읍시 조곡천1길 5,전라북도,KR,대한민국,2016-02-09T15:35:53.212Z,,,,,,,[  ],,,35.568379492459,14.0,정읍시,126.845352255946,연지동 정보센터,,,,,,0,false,[  ],,,,,,,,,연지동,INFO_CENTER,2016-02-09T15:35:53.212Z
56ba0759c7d621dd306f129c,,[  ],전라북도 정읍시 중앙1길 147,전라북도,KR,대한민국,2016-02-09T15:35:53.216Z,,,,,,,[  ],,,35.5675679921659,14.0,정읍시,126.85675547752,장명동 정보센터,,,,,,0,false,[  ],,,,,,,,,장명동,INFO_CENTER,2016-02-09T15:35:53.216Z
56ba0759c7d621dd306f129e,,[  ],전라북도 정읍시 천변로 226,전라북도,KR,대한민국,2016-02-09T15:35:53.217Z,,,,,,,[  ],,,35.5617584672363,14.0,정읍시,126.85247285257,초산동 정보센터,,,,,,0,false,[  ],,,,,,,,,초산동,INFO_CENTER,2016-02-09T15:35:53.217Z
56ba0759c7d621dd306f12a2,,[  ],전라북도 진안군 마령면 솔안2길 8,전라북도,KR,대한민국,2016-02-09T15:35:53.220Z,,,,,,8,[  ],,,35.7341661710801,14.0,진안군,127.370673836897,마령면 정보센터,,,,,,0,false,[  ],,,,,,,,,마령면,INFO_CENTER,2016-02-09T15:35:53.220Z
56ba0759c7d621dd306f12a5,,[  ],전라북도 진안군 상전면 주평로 41,전라북도,KR,대한민국,2016-02-09T15:35:53.222Z,,,,,,41,[  ],,,35.8231474566997,14.0,진안군,127.48738827265,상전면 정보센터,,,,,,0,false,[  ],,,,,,,,,상전면,INFO_CENTER,2016-02-09T15:35:53.222Z
56ba0759c7d621dd306f12a8,,[  ],전라북도 진안군 용담면 대송로 17,전라북도,KR,대한민국,2016-02-09T15:35:53.225Z,,,,,,17,[  ],,,35.9670907551969,14.0,진안군,127.519800547822,용담면 정보센터,,,,,,0,false,[  ],,,,,,,,,용담면,INFO_CENTER,2016-02-09T15:35:53.225Z
56ba0759c7d621dd306f12a9,,[  ],전라북도 진안군 정천면 봉학로 66,전라북도,KR,대한민국,2016-02-09T15:35:53.225Z,,,,,,66,[  ],,,35.8731331145423,14.0,진안군,127.429073141815,정천면 정보센터,,,,,,0,false,[  ],,,,,,,,,정천면,INFO_CENTER,2016-02-09T15:35:53.225Z
56ba0759c7d621dd306f12ab,,[  ],전라북도 진안군 진안읍 대성길 3,전라북도,KR,대한민국,2016-02-09T15:35:53.227Z,,,,,,3,[  ],,,35.7894125519985,14.0,진안군,127.423406059944,진안읍 정보센터,,,,,,0,false,[  ],,,,,,,,,진안읍,INFO_CENTER,2016-02-09T15:35:53.227Z
56ba0759c7d621dd306f12da,,[  ],충청남도 계룡시 엄사면 번영로 47,충청남도,KR,대한민국,2016-02-09T15:35:53.261Z,,,,,,47,[  ],,,36.2885523542629,14.0,계룡시,127.239864207681,엄사면 정보센터,,,,,,0,false,[  ],,,,,,,,,엄사면,INFO_CENTER,2016-02-09T15:35:53.261Z
56ba0759c7d621dd306f12e0,,[  ],충청남도 공주시 신풍면 안뜸길 14,충청남도,KR,대한민국,2016-02-09T15:35:53.266Z,,,,,,14,[  ],,,36.5146871148382,14.0,공주시,126.955509500731,신풍면 정보센터,,,,,,0,false,[  ],,,,,,,,,신풍면,INFO_CENTER,2016-02-09T15:35:53.266Z
56ba0759c7d621dd306f12eb,,[  ],충청남도 금산군 군북면 산꽃로 17,충청남도,KR,대한민국,2016-02-09T15:35:53.274Z,,,,,,17,[  ],,,36.1689456789167,14.0,금산군,127.527710075002,군북면 정보센터,,,,,,0,false,[  ],,,,,,,,,군북면,INFO_CENTER,2016-02-09T15:35:53.274Z
56ba0759c7d621dd306f12ec,,[  ],충청남도 금산군 금산읍 비호로 69,충청남도,KR,대한민국,2016-02-09T15:35:53.274Z,,,,,,69,[  ],,,36.1071643911791,14.0,금산군,127.490900436431,금산읍 정보센터,,,,,,0,false,[  ],,,,,,,,,금산읍,INFO_CENTER,2016-02-09T15:35:53.274Z
56ba0759c7d621dd306f12ef,,[  ],충청남도 금산군 남일면 봉황로 84,충청남도,KR,대한민국,2016-02-09T15:35:53.276Z,,,,,,84,[  ],,,36.0428554630858,14.0,금산군,127.50441633748,남일면 정보센터,,,,,,0,false,[  ],,,,,,,,,남일면,INFO_CENTER,2016-02-09T15:35:53.276Z
56ba0759c7d621dd306f12f1,,[  ],충청남도 금산군 부리면 현내1길 37,충청남도,KR,대한민국,2016-02-09T15:35:53.278Z,,,,,,37,[  ],,,36.0611375680458,14.0,금산군,127.555372535765,부리면 정보센터,,,,,,0,false,[  ],,,,,,,,,부리면,INFO_CENTER,2016-02-09T15:35:53.278Z
56ba0759c7d621dd306f12f3,,[  ],충청남도 금산군 진산면 읍내로 69,충청남도,KR,대한민국,2016-02-09T15:35:53.279Z,,,,,,69,[  ],,,36.1442056851152,14.0,금산군,127.370055620245,진산면 정보센터,,,,,,0,false,[  ],,,,,,,,,진산면,INFO_CENTER,2016-02-09T15:35:53.279Z
56ba0759c7d621dd306f12fb,,[  ],충청남도 논산시 시민로389 (부창동),충청남도,KR,대한민국,2016-02-09T15:35:53.285Z,,,,,,,[  ],,,36.1996256870575,14.0,논산시,127.087048649853,부창동 정보센터,,,,,,0,false,[  ],,,,,,,,,부창동,INFO_CENTER,2016-02-09T15:35:53.285Z
56ba0759c7d621dd306f12ff,,[  ],충청남도 논산시 연무읍 안심로 50,충청남도,KR,대한민국,2016-02-09T15:35:53.288Z,,,,,,50,[  ],,,36.1251224459517,14.0,논산시,127.099030161709,연무읍 정보센터,,,,,,0,false,[  ],,,,,,,,,연무읍,INFO_CENTER,2016-02-09T15:35:53.288Z
56ba0759c7d621dd306f1302,,[  ],충청남도 논산시 채운면 채운로 41,충청남도,KR,대한민국,2016-02-09T15:35:53.290Z,,,,,,41,[  ],,,36.1737763701671,14.0,논산시,127.062606243991,채운면 정보센터,,,,,,0,false,[  ],,,,,,,,,채운면,INFO_CENTER,2016-02-09T15:35:53.290Z
56ba0759c7d621dd306f1303,,[  ],충청남도 논산시 채운면 채운로 41,충청남도,KR,대한민국,2016-02-09T15:35:53.291Z,,,,,,41,[  ],,,36.1737763701671,14.0,논산시,127.062606243991,취암동 정보센터,,,,,,0,false,[  ],,,,,,,,,취암동,INFO_CENTER,2016-02-09T15:35:53.291Z
56ba0759c7d621dd306f1304,,[  ],충청남도 당진시 고대면 구장터길 9,충청남도,KR,대한민국,2016-02-09T15:35:53.292Z,,,,,,9,[  ],,,36.9260453455949,14.0,당진시,126.596893356255,고대면 정보센터,,,,,,0,false,[  ],,,,,,,,,고대면,INFO_CENTER,2016-02-09T15:35:53.292Z
56ba0759c7d621dd306f130c,,[  ],충청남도 당진시 송악읍 반촌로 59,충청남도,KR,대한민국,2016-02-09T15:35:53.297Z,,,,,,59,[  ],,,36.903243071473,14.0,당진시,126.690235407284,송악읍 정보센터,,,,,,0,false,[  ],,,,,,,,,송악읍,INFO_CENTER,2016-02-09T15:35:53.297Z
56ba0759c7d621dd306f1322,,[  ],충청남도 부여군 구룡면 태양로 17,충청남도,KR,대한민국,2016-02-09T15:35:53.313Z,,,,,,17,[  ],,,36.2523319543367,14.0,부여군,126.81278128448,구룡면 정보센터,,,,,,0,false,[  ],,,,,,,,,구룡면,INFO_CENTER,2016-02-09T15:35:53.313Z
56ba0759c7d621dd306f1323,,[  ],충청남도 부여군 규암면 계백로 39,충청남도,KR,대한민국,2016-02-09T15:35:53.314Z,,,,,,39,[  ],,,36.2749699907946,14.0,부여군,126.883912758381,규암면 정보센터,,,,,,0,false,[  ],,,,,,,,,규암면,INFO_CENTER,2016-02-09T15:35:53.314Z
56ba0759c7d621dd306f1324,,[  ],충청남도 부여군 남면 남성로 426,충청남도,KR,대한민국,2016-02-09T15:35:53.315Z,,,,,,426,[  ],,,36.2119485512163,14.0,부여군,126.80664101,남면 정보센터,,,,,,0,false,[  ],,,,,,,,,남면,INFO_CENTER,2016-02-09T15:35:53.315Z
56ba0759c7d621dd306f1326,,[  ],충청남도 부여군 부여읍 사비로 36,충청남도,KR,대한민국,2016-02-09T15:35:53.316Z,,,,,,36,[  ],,,36.275552082031,14.0,부여군,126.91117095697,부여읍 정보센터,,,,,,0,false,[  ],,,,,,,,,부여읍,INFO_CENTER,2016-02-09T15:35:53.316Z
56ba0759c7d621dd306f132e,,[  ],충청남도 부여군 장암면 석동로 15,충청남도,KR,대한민국,2016-02-09T15:35:53.322Z,,,,,,15,[  ],,,36.2438817272503,14.0,부여군,126.886975926606,장암면 정보센터,,,,,,0,false,[  ],,,,,,,,,장암면,INFO_CENTER,2016-02-09T15:35:53.322Z
56ba0759c7d621dd306f132f,,[  ],충청남도 부여군 초촌면 초촌로 15,충청남도,KR,대한민국,2016-02-09T15:35:53.322Z,,,,,,15,[  ],,,36.2639652032087,14.0,부여군,127.020084071503,초촌면 정보센터,,,,,,0,false,[  ],,,,,,,,,초촌면,INFO_CENTER,2016-02-09T15:35:53.322Z
56ba0759c7d621dd306f1331,,[  ],충청남도 부여군 홍산면 홍산로 77,충청남도,KR,대한민국,2016-02-09T15:35:53.324Z,,,,,,77,[  ],,,36.2166201594602,14.0,부여군,126.760662504793,홍산면 정보센터,,,,,,0,false,[  ],,,,,,,,,홍산면,INFO_CENTER,2016-02-09T15:35:53.324Z
56ba0759c7d621dd306f133e,,[  ],충청남도 서산시 지곡면 화천1로 76,충청남도,KR,대한민국,2016-02-09T15:35:53.343Z,,,,,,76,[  ],,,36.8635224672366,14.0,서산시,126.436901578439,지곡면 정보센터,,,,,,0,false,[  ],,,,,,,,,지곡면,INFO_CENTER,2016-02-09T15:35:53.343Z
56ba0759c7d621dd306f1341,,[  ],충청남도 서천군 기산면 기산길 57,충청남도,KR,대한민국,2016-02-09T15:35:53.345Z,,,,,,57,[  ],,,36.0746647802572,14.0,서천군,126.762234578805,기산면 정보센터,,,,,,0,false,[  ],,,,,,,,,기산면,INFO_CENTER,2016-02-09T15:35:53.345Z
56ba0759c7d621dd306f1346,,[  ],충청남도 서천군 서면 서인로 761,충청남도,KR,대한민국,2016-02-09T15:35:53.349Z,,,,,,761,[  ],,,36.1529160127331,14.0,서천군,126.549263399411,서면 정보센터,,,,,,0,false,[  ],,,,,,,,,서면,INFO_CENTER,2016-02-09T15:35:53.349Z
56ba0759c7d621dd306f1347,,[  ],충청남도 서천군 서천읍 서천로 92,충청남도,KR,대한민국,2016-02-09T15:35:53.350Z,,,,,,92,[  ],,,36.0778375255819,14.0,서천군,126.689881128878,서천읍 정보센터,,,,,,0,false,[  ],,,,,,,,,서천읍,INFO_CENTER,2016-02-09T15:35:53.350Z
56ba0759c7d621dd306f1350,,[  ],충청남도 아산시 배방읍 배방로 38,충청남도,KR,대한민국,2016-02-09T15:35:53.356Z,,,,,,38,[  ],,,36.7736633095662,14.0,아산시,127.052323828986,배방읍 정보센터,,,,,,0,false,[  ],,,,,,,,,배방읍,INFO_CENTER,2016-02-09T15:35:53.356Z
56ba0759c7d621dd306f1354,,[  ],충청남도 아산시 염치읍 염치로 37,충청남도,KR,대한민국,2016-02-09T15:35:53.361Z,,,,,,37,[  ],,,36.8165943780575,14.0,아산시,126.976724013696,염치읍 정보센터,,,,,,0,false,[  ],,,,,,,,,염치읍,INFO_CENTER,2016-02-09T15:35:53.361Z
56ba0759c7d621dd306f1355,,[  ],충청남도 아산시 영인면 영인로 78,충청남도,KR,대한민국,2016-02-09T15:35:53.362Z,,,,,,78,[  ],,,36.8562187264288,14.0,아산시,126.954711308269,영인면 정보센터,,,,,,0,false,[  ],,,,,,,,,영인면,INFO_CENTER,2016-02-09T15:35:53.362Z
56ba0759c7d621dd306f1364,,[  ],충청남도 예산군 봉산면 황금뜰로 3,충청남도,KR,대한민국,2016-02-09T15:35:53.373Z,,,,,,3,[  ],,,36.7490559472773,14.0,예산군,126.681723433808,봉산면 정보센터,,,,,,0,false,[  ],,,,,,,,,봉산면,INFO_CENTER,2016-02-09T15:35:53.373Z
56ba0759c7d621dd306f1365,,[  ],충청남도 예산군 삽교읍 두리3길 33,충청남도,KR,대한민국,2016-02-09T15:35:53.373Z,,,,,,33,[  ],,,36.6882762416725,14.0,예산군,126.739167421936,삽교읍 정보센터,,,,,,0,false,[  ],,,,,,,,,삽교읍,INFO_CENTER,2016-02-09T15:35:53.373Z
56ba0759c7d621dd306f1366,,[  ],충청남도 예산군 신암면 종경길 70,충청남도,KR,대한민국,2016-02-09T15:35:53.374Z,,,,,,70,[  ],,,36.734457665145,14.0,예산군,126.826422409852,신암면 정보센터,,,,,,0,false,[  ],,,,,,,,,신암면,INFO_CENTER,2016-02-09T15:35:53.374Z
56ba0759c7d621dd306f138b,,[  ],충청남도 청양군 목면 안심길 107,충청남도,KR,대한민국,2016-02-09T15:35:53.401Z,,,,,,107,[  ],,,36.4188223792434,14.0,청양군,127.004049750858,목면 정보센터,,,,,,0,false,[  ],,,,,,,,,목면,INFO_CENTER,2016-02-09T15:35:53.401Z
56ba0759c7d621dd306f1393,,[  ],충청남도 태안군 고남면 빗독2길 34,충청남도,KR,대한민국,2016-02-09T15:35:53.406Z,,,,,,34,[  ],,,36.4250474282949,14.0,태안군,126.407314051762,고남면 정보센터,,,,,,0,false,[  ],,,,,,,,,고남면,INFO_CENTER,2016-02-09T15:35:53.406Z
56ba0759c7d621dd306f1395,,[  ],충청남도 태안군 남면 달산포로 311,충청남도,KR,대한민국,2016-02-09T15:35:53.408Z,,,,,,311,[  ],,,36.6716441531584,14.0,태안군,126.29771263701,남면 정보센터,,,,,,0,false,[  ],,,,,,,,,남면,INFO_CENTER,2016-02-09T15:35:53.408Z
56ba0759c7d621dd306f1397,,[  ],충청남도 태안군 태안읍 백화로 54,충청남도,KR,대한민국,2016-02-09T15:35:53.409Z,,,,,,54,[  ],,,36.7576915187911,14.0,태안군,126.296310807309,안면읍 정보센터,,,,,,0,false,[  ],,,,,,,,,안면읍,INFO_CENTER,2016-02-09T15:35:53.409Z
56ba0759c7d621dd306f1398,,[  ],충청남도 태안군 원북면 상리길 11,충청남도,KR,대한민국,2016-02-09T15:35:53.410Z,,,,,,11,[  ],,,36.8234768567496,14.0,태안군,126.256914488861,원북면 정보센터,,,,,,0,false,[  ],,,,,,,,,원북면,INFO_CENTER,2016-02-09T15:35:53.410Z
56ba0759c7d621dd306f1399,,[  ],충청남도 태안군 이원면 분지길 14,충청남도,KR,대한민국,2016-02-09T15:35:53.411Z,,,,,,14,[  ],,,36.8695760107016,14.0,태안군,126.28088573972,이원면 정보센터,,,,,,0,false,[  ],,,,,,,,,이원면,INFO_CENTER,2016-02-09T15:35:53.411Z
56ba0759c7d621dd306f139b,,[  ],충청남도 홍성군 갈산면 갈산로 93,충청남도,KR,대한민국,2016-02-09T15:35:53.412Z,,,,,,93,[  ],,,36.6051936861229,14.0,홍성군,126.550048217125,갈산면 정보센터,,,,,,0,false,[  ],,,,,,,,,갈산면,INFO_CENTER,2016-02-09T15:35:53.412Z
56f21abe93e2c21e28e5c22a,,[  ],"서울특별시 동작구 신대방2동,서울특별시 동작구 신대방동  395-69,서울특별시 동작구 보라매로5가길 16 보라매아카데미타워",서울특별시,KR,대한민국,2016-03-23T04:25:34.686Z,,,,,,395-69,[  ],,,37.491312378807756,18,동작구,126.92412178963423,황상익,56ba07dec7d621dd306f1441,56f21a9793e2c21e28e5c227,,,,0,false,[  ],,,,,,,,,신대방2동,MEMBER,2016-03-23T04:25:34.686Z
56f2371793e2c21e28e5c22b,,[  ],"서울특별시 관악구 신림동,서울특별시 관악구 신림동  1422-5,서울특별시 관악구 신림로 340 르네상스 복합쇼핑몰",서울특별시,KR,대한민국,2016-03-23T06:26:31.158Z,,,,,,1422-5,[  ],,,37.48475328441922,18,관악구,126.93008400499819,미팅중,56ba07dec7d621dd306f1441,56ba2ae9be9cff33424ba5e8,,,https://s3-ap-northeast-1.amazonaws.com/umanji-0001/0339e499-63be-4267-96eb-d453829a2411.jpg,0,false,[  ],,,,,,,,,신림동,POST,2016-03-23T06:26:31.158Z
56f2840d93e2c21e28e5c22c,,[  ],서울특별시,서울특별시,KR,대한민국,2016-03-23T11:54:53.277Z,,,,,,1,[  ],,,37.642705,2,종로구,126.977091,내일에도 카우앤독에 계실건가요,56d546c3f520a154263f1105,56d13b8e07c87bdf5954119a,,,,20,false,[  ],56f284bb93e2c21e28e5c230,종로 쪽에서 일하다가 지산선생님 만나뵈로 가야할듯해요.,56c4b32cb48c49972b454d0f,POST,5705f5353b90a1a17dbd5559,이강훈,56c4b32cb48c49972b454d0f,LIKE,종로1.2.3.4가동,POST,2016-04-07T05:50:45.585Z
56f284bb93e2c21e28e5c230,,[  ],서울특별시,서울특별시,KR,대한민국,2016-03-23T11:57:47.097Z,,,,,,1,[  ],,,37.642705,2,종로구,126.977091,종로 쪽에서 일하다가 지산선생님 만나뵈로 가야할듯해요.,56c4b32cb48c49972b454d0f,56f2840d93e2c21e28e5c22c,,,,20,false,[  ],56f2855c93e2c21e28e5c232,알겠습니다~\n,56d546c3f520a154263f1105,POST,56f28a7193e2c21e28e5c236,황상익,56ba07dec7d621dd306f1441,LIKE,종로1.2.3.4가동,POST,2016-03-23T12:22:09.979Z
56f2855c93e2c21e28e5c232,,[  ],서울특별시,서울특별시,KR,대한민국,2016-03-23T12:00:28.476Z,,,,,,1,[  ],,,37.642705,2,종로구,126.977091,알겠습니다~\n,56d546c3f520a154263f1105,56f284bb93e2c21e28e5c230,,,,0,false,[  ],,,,,,,,,종로1.2.3.4가동,POST,2016-03-23T12:00:28.476Z
56f28a1093e2c21e28e5c234,,[  ],"서울특별시 종로구 종로1.2.3.4가동,서울특별시 종로구 낙원동  23,서울특별시 종로구 삼일대로30길 21 종로오피스텔",서울특별시,KR,대한민국,2016-03-23T12:20:32.208Z,,,,,,23,[  ],,,37.574212666768574,18,종로구,126.98857225477695,0,56d546c3f520a154263f1105,56cbb9fc969fb2401c8040e5,,,,0,false,[  ],,,,,,,,,종로1.2.3.4가동,SURVEY,2016-03-23T12:20:32.208Z
56f383e093e2c21e28e5c239,,[  ],서울특별시,서울특별시,KR,대한민국,2016-03-24T06:06:24.321Z,,,,,,1,[  ],,,37.642705,2,종로구,126.977091,아앙,56c4b32cb48c49972b454d0f,56e64f1cb311c4b329536d43,,,,0,false,[  ],,,,,,,,,종로1.2.3.4가동,POST,2016-03-24T06:06:24.321Z
56f3900b93e2c21e28e5c23f,,[  ],"경기도 화성시 남양읍,경기도 화성시 남양읍 원천리 658-1,경기도 화성시 남양읍 샘실길 100 남양골프랜드",경기도,KR,대한민국,2016-03-24T06:58:19.317Z,,,,,,658-1,[  ],,,37.22026823487993,18,화성시,126.80584039539097,연습장입니다. 150미터,56ba07dec7d621dd306f1441,56f38ff993e2c21e28e5c23e,,,,20,false,[  ],5713815435adfafe3cb2e459,이강훈,56c4b32cb48c49972b454d0f,LIKE,571789f18fa3293f0f2fba48,문남인,570679122f13611a4813574f,LIKE,남양읍,POST,2016-04-20T13:53:53.562Z
56f5262f93e2c21e28e5c243,,[  ],"서울특별시 동작구 신대방2동,서울특별시 동작구 신대방동  342-87,서울특별시 동작구 보라매로 59 세종빌딩",서울특별시,KR,대한민국,2016-03-25T11:51:11.982Z,,,,,,342-87,[  ],,,37.49455513341211,18,동작구,126.92704539746047,설현,56bb1345138c08014eee6fae,56c7dff82864c52822f74a3b,,,,0,false,[  ],,,,,,,,,신대방2동,MEMBER,2016-03-25T11:51:11.982Z
56f7a6fd0d704b374c0a71ec,,[  ],"서울특별시 동작구 노량진2동,서울특별시 동작구 노량진동  40-79,서울특별시 동작구 노량진로12길 6 동작신용협동조합",서울특별시,KR,대한민국,2016-03-27T09:25:17.389Z,1,,,,,40-79,[  ],,,37.51318161839765,18,동작구,126.9382768124342,루시드커피숍,56ba07dec7d621dd306f1441,,,,,10,false,[  ],56f7a71d0d704b374c0a71ed,이희원지와 미팅\n,56ba07dec7d621dd306f1441,POST,,,,,노량진2동,SPOT,2016-03-27T09:25:49.722Z
56f7a71d0d704b374c0a71ed,,[  ],"서울특별시 동작구 노량진2동,서울특별시 동작구 노량진동  40-79,서울특별시 동작구 노량진로12길 6 동작신용협동조합",서울특별시,KR,대한민국,2016-03-27T09:25:49.697Z,,,,,,40-79,[  ],,,37.51318161839765,18,동작구,126.9382768124342,이희원지와 미팅\n,56ba07dec7d621dd306f1441,56f7a6fd0d704b374c0a71ec,,,,0,false,[  ],,,,,,,,,노량진2동,POST,2016-03-27T09:25:49.697Z
56f8f8cf0d704b374c0a71f0,,[  ],"서울특별시 동작구 대방동,서울특별시 동작구 대방동  335-15,서울특별시 동작구 상도로 77 ",서울특별시,KR,대한민국,2016-03-28T09:26:39.879Z,1,,,,,335-15,[  ],,,37.49984060142997,18,동작구,126.92925453186037,바지락칼국수,56ba07dec7d621dd306f1441,,,,,20,false,[  ],56f8f8de0d704b374c0a71f1,바지락칼국수,56ba07dec7d621dd306f1441,SPOT_INNER,56f8f92a0d704b374c0a71f3,이디야커피,56ba07dec7d621dd306f1441,SPOT_INNER,대방동,SPOT,2016-03-28T09:28:10.883Z
56f8f8de0d704b374c0a71f1,,[  ],"서울특별시 동작구 대방동,서울특별시 동작구 대방동  335-15,서울특별시 동작구 상도로 77 ",서울특별시,KR,대한민국,2016-03-28T09:26:54.606Z,1,,,,,335-15,[  ],,,37.49984060142997,18,동작구,126.92925453186037,바지락칼국수,56ba07dec7d621dd306f1441,56f8f8cf0d704b374c0a71f0,,,,10,false,[  ],56f8f8f80d704b374c0a71f2,"바지락은 많이 나오는데 너무짜다. ",56ba07dec7d621dd306f1441,POST,,,,,대방동,SPOT_INNER,2016-03-28T09:27:20.669Z
56f8f8f80d704b374c0a71f2,,[  ],"서울특별시 동작구 대방동,서울특별시 동작구 대방동  335-15,서울특별시 동작구 상도로 77 ",서울특별시,KR,대한민국,2016-03-28T09:27:20.650Z,,,,,,335-15,[  ],,,37.49984060142997,18,동작구,126.92925453186037,"바지락은 많이 나오는데 너무짜다. ",56ba07dec7d621dd306f1441,56f8f8de0d704b374c0a71f1,,,,0,false,[  ],,,,,,,,,대방동,POST,2016-03-28T09:27:20.650Z
56f8f92a0d704b374c0a71f3,,[  ],"서울특별시 동작구 대방동,서울특별시 동작구 대방동  335-15,서울특별시 동작구 상도로 77 ",서울특별시,KR,대한민국,2016-03-28T09:28:10.861Z,1,,,,,335-15,[  ],,,37.49984060142997,18,동작구,126.92925453186037,이디야커피,56ba07dec7d621dd306f1441,56f8f8cf0d704b374c0a71f0,,,,0,false,[  ],,,,,,,,,대방동,SPOT_INNER,2016-03-28T09:28:10.861Z
56f8f9750d704b374c0a71f4,,[  ],"서울특별시 동작구 대방동,서울특별시 동작구 대방동  335-25,서울특별시 동작구 상도로 73 보광빌딩",서울특별시,KR,대한민국,2016-03-28T09:29:25.271Z,1,,,,,335-25,[  ],,,37.49986055090254,18,동작구,126.9289246201515,이브자리,56ba07dec7d621dd306f1441,,,,,10,false,[  ],56f8f9820d704b374c0a71f5,이브자리,56ba07dec7d621dd306f1441,SPOT_INNER,,,,,대방동,SPOT,2016-03-28T09:29:47.361Z
56f8f9820d704b374c0a71f5,,[  ],"서울특별시 동작구 대방동,서울특별시 동작구 대방동  335-25,서울특별시 동작구 상도로 73 보광빌딩",서울특별시,KR,대한민국,2016-03-28T09:29:38.336Z,1,,,,,335-25,[  ],,,37.49986055090254,18,동작구,126.9289246201515,이브자리,56ba07dec7d621dd306f1441,56f8f9750d704b374c0a71f4,,,,0,false,[  ],,,,,,,,,대방동,SPOT_INNER,2016-03-28T09:29:38.336Z
56f8f9a90d704b374c0a71f6,,[  ],"서울특별시 동작구 대방동,서울특별시 동작구 대방동  393-67,서울특별시 동작구 상도로 73 보광빌딩",서울특별시,KR,대한민국,2016-03-28T09:30:17.848Z,1,,,,,393-67,[  ],,,37.4999871634308,18,동작구,126.92866880446672,해무울,56ba07dec7d621dd306f1441,,,,,10,false,[  ],56f8f9bb0d704b374c0a71f7,꽃게 아구 해물탕,56ba07dec7d621dd306f1441,SPOT_INNER,,,,,대방동,SPOT,2016-03-28T09:31:13.919Z
56f8f9bb0d704b374c0a71f7,,[  ],"서울특별시 동작구 대방동,서울특별시 동작구 대방동  393-67,서울특별시 동작구 상도로 73 보광빌딩",서울특별시,KR,대한민국,2016-03-28T09:30:35.982Z,1,,,,,393-67,[  ],,,37.4999871634308,18,동작구,126.92866880446672,꽃게 아구 해물탕,56ba07dec7d621dd306f1441,56f8f9a90d704b374c0a71f6,,,,0,false,[  ],,,,,,,,,대방동,SPOT_INNER,2016-03-28T09:30:35.982Z
56f8fa0b0d704b374c0a71f8,,[  ],"서울특별시 동작구 대방동,서울특별시 동작구 대방동  394-7,서울특별시 동작구 상도로 65 대방동빌딩",서울특별시,KR,대한민국,2016-03-28T09:31:55.011Z,1,,,,,394-7,[  ],,,37.499899917846086,18,동작구,126.92800026386975,몽소커피,56ba07dec7d621dd306f1441,,,,,20,false,[  ],56f8fa1c0d704b374c0a71f9,몽소커피,56ba07dec7d621dd306f1441,SPOT_INNER,5714d25c8235a0a252e21b86,문남인,570679122f13611a4813574f,MEMBER,대방동,SPOT,2016-04-18T12:26:04.149Z
56f8fa1c0d704b374c0a71f9,,[  ],"서���특별시 동작구 대방동,서울특별시 동작구 대방동  394-7,서울특별시 동작구 상도로 65 대방동빌딩",서울특별시,KR,대한민국,2016-03-28T09:32:12.667Z,1,,,,,394-7,[  ],,,37.499899917846086,18,동작구,126.92800026386975,몽소커피,56ba07dec7d621dd306f1441,56f8fa0b0d704b374c0a71f8,,,,0,false,[  ],,,,,,,,,대방동,SPOT_INNER,2016-03-28T09:32:12.667Z
56f9242f0d704b374c0a71fa,,[  ],"서울특별시 동작구 신대방2동,서울특별시 동작구 신대방동  395-69,서울특별시 동작구 보라매로5가길 16 보라매아카데미타워",서울특별시,KR,대한민국,2016-03-28T12:31:43.636Z,,,,,,395-69,[  ],,,37.491312378807756,18,동작구,126.92412178963423,황상익,56ba07dec7d621dd306f1441,56ba0985c7d621dd306f1445,,,,0,false,[  ],,,,,,,,,신대방2동,MEMBER,2016-03-28T12:31:43.636Z
56fb5ffc0d704b374c0a71fe,,[  ],서울특별시 동작구 여의대방로24길 106,서울특별시,KR,대한민국,2016-03-30T05:11:24.891Z,,,,,,,[  ],,,37.4989376659046,14,동작구,126.925864023486,커피숍,56ba07dec7d621dd306f1441,56ba0758c7d621dd306f0ed2,,,,0,false,[  ],,,,,,,,,신대방2동,COMMUNITY,2016-03-30T05:11:24.891Z
56fb5ffc0d704b374c0a71fd,,[  ],"서울특별시 동작구 노량진2동,서울특별시 동작구 노량진동  47-2,서울특별시 동작구 장승배기로 161 동작구청",서울특별시,KR,대한민국,2016-03-30T05:11:24.891Z,,,,,,47-2,[  ],,,37.512177,12,동작구,126.939461,커피숍,56ba07dec7d621dd306f1441,56ba074fc7d621dd306f0636,,,,0,false,[  ],,,,,,,,,노량진2동,COMMUNITY,2016-03-30T05:11:24.891Z
56fb5ffc0d704b374c0a71ff,,[  ],서울특별시,서울특별시,KR,대한민국,2016-03-30T05:11:24.891Z,,,,,,1,[  ],,,37.642705,2,종로구,126.977091,커피숍,56ba07dec7d621dd306f1441,56bad37bbe9cff33424ba65a,,,,0,false,[  ],,,,,,,,,종로1.2.3.4가동,COMMUNITY,2016-03-30T05:11:24.891Z
56ba074fc7d621dd306f062f,,[  ],서울특별시 관악구 관악로 145,서울특별시,KR,대한민국,2016-02-09T15:35:43.990Z,,,,,,,[  ],,,37.4782097744199,12.0,관악구,126.951503166719,관악구청 정보센터,,,,,,0,false,"[ ""umanji_cow"" ]",,,,,,,,,,INFO_CENTER,2016-03-31T00:23:20.344Z
56fd5b70620e6f7a48e6135b,,[  ],"서울특별시 관악구 보라매동,서울특별시 관악구 봉천동  722-19,서울특별시 관악구 보라매로 44 삼육외래센터",서울특별시,KR,대한민국,2016-03-31T17:16:32.207Z,1,,,,,722-19,[  ],,,37.49313647884873,18,관악구,126.92722510546446,삼육재활원,56ba07dec7d621dd306f1441,,,,,10,false,[  ],57170e33581ca1a023672656,"아이들이 열심히 재활활동을 하고 있어요. 힘내세요. ",56ba07dec7d621dd306f1441,POST,,,,,보라매동,SPOT,2016-04-20T05:05:55.852Z
56ff712c620e6f7a48e6135c,,[  ],"서울특별시 동작구 신대방2동,서울특별시 동작구 신대방동  395-68,서울특별시 동작구 보라매로5가길 24 보라매나산스위트",서울특별시,KR,대한민국,2016-04-02T07:13:48.549Z,,,,,,395-68,[  ],,,37.49073191353759,18,동작구,126.92405004054307,any,56fcc8693db835ea3601190a,56c40f0317046e0a1f50c47e,,,,0,false,[  ],,,,,,,,,신대방2동,MEMBER,2016-04-02T07:13:48.549Z
5701312e12bc878144af19f0,,[  ],"555 Massachusetts Ave NW, Washington, DC 20001, USA",Washington,DC,District of Columbia,2016-04-03T15:05:18.688Z,1,,,,,555,[  ],,,38.901706303475066,18,Mount Vernon Triangle,-77.01938040554523,Washington Convention Center,56ba07dec7d621dd306f1441,,,,,10,false,[  ],570131b012bc878144af19f1,박근혜 단체사진에서 빠짐.\n\nhttp://www.vop.co.kr/A00001009417.html,56ba07dec7d621dd306f1441,POST,,,,,Massachusetts Avenue Northwest,SPOT,2016-04-03T15:07:28.672Z
570131b012bc878144af19f1,,[  ],"555 Massachusetts Ave NW, Washington, DC 20001, USA",Washington,DC,District of Columbia,2016-04-03T15:07:28.648Z,,원래 일정에서는 1시간45분의 본회의가 끝나면 15분의 휴식 뒤 단체사진 촬영을 하기로 돼..,http://archivenew.vop.co.kr/images/mobilethumbnail/2016-04/03034747_8.jpg,박근혜 대통령 빠진 채 핵안보 정상회의 단체촬영 ‘찰칵’,,555,[  ],,,38.901706303475066,18,Mount Vernon Triangle,-77.01938040554523,박근혜 단체사진에서 빠짐.\n\nhttp://www.vop.co.kr/A00001009417.html,56ba07dec7d621dd306f1441,5701312e12bc878144af19f0,,,,0,false,[  ],,,,,,,,,Massachusetts Avenue Northwest,POST,2016-04-03T15:07:28.648Z
570138c812bc878144af19f2,,[  ],"서울특별시 관악구 신림동,서울특별시 관악구 신림동  1434-16,서울특별시 관악구 신림동7길 47 ",서울특별시,KR,대한민국,2016-04-03T15:37:44.624Z,1,,,,,1434-16,[  ],,,37.48496532336908,18,관악구,126.9268737360835,경성양꼬치,56ba07dec7d621dd306f1441,,,,"https://s3-ap-northeast-1.amazonaws.com/umanji-0001/e6afcdb5-7cb4-42a1-855d-b4471b998222.jpg      ",10,false,[  ],5701391812bc878144af19f3,옥수수국수 맛있겠다.,56ba07dec7d621dd306f1441,POST,,,,,신림동,SPOT,2016-04-03T15:39:04.462Z
5701391812bc878144af19f3,,[  ],"서울특별시 관악구 신림동,서울특별시 관악구 신림동  1434-16,서울특별시 관악구 신림동7길 47 ",서울특별시,KR,대한민국,2016-04-03T15:39:04.439Z,,,,,,1434-16,[  ],,,37.48496532336908,18,관악구,126.9268737360835,옥수수국수 맛있겠다.,56ba07dec7d621dd306f1441,570138c812bc878144af19f2,,,https://s3-ap-northeast-1.amazonaws.com/umanji-0001/130eef42-9c13-49c8-8295-f065643963ab.jpg,0,false,[  ],,,,,,,,,신림동,POST,2016-04-03T15:39:04.439Z
5701406912bc878144af19f4,,[  ],"서울특별시 동작구 상도1동,서울특별시 동작구 상도동  511,서울특별시 동작구 상도로 369 숭실대학교",서울특별시,KR,대한민국,2016-04-03T16:10:17.502Z,,,,,,511,[  ],,,37.496556579602384,15,동작구,126.95739056915043,숭실대학교,56ba07dec7d621dd306f1441,,,,,0,false,[  ],,,,,,,,,상도1동,COMPLEX,2016-04-03T16:10:17.502Z
570140fc12bc878144af19f5,,[  ],"경기도 용인시 처인구 포곡읍,경기도 용인시 처인구 포곡읍 전대리 519-37,경기도 용인시 처인구 포곡읍 에버랜드로 199 삼성에버랜드",경기도,KR,대한민국,2016-04-03T16:12:44.788Z,,,,,,519-37,[  ],,,37.292975285397155,15,용인시 처인구,127.20347922295332,에버랜드,56ba07dec7d621dd306f1441,,,,,20,false,[  ],571ddbab52547c4d4b2ed22b,홀랜드~ ㅎㅎ,57107970c16541376e4b9a0b,POST,57466d8b2d1929fd2887f69a,장미축제,56ba07dec7d621dd306f1441,COMMUNITY,포곡읍,COMPLEX,2016-05-26T03:29:15.624Z
5701450212bc878144af19f6,,[  ],서울특별시 동작구 여의대방로24길 106,서울특별시,KR,대한민국,2016-04-03T16:29:54.365Z,,,,,,,[  ],,,37.4989376659046,14,동작구,126.925864023486,신대방2동장이 잘하고 있나요?,56ba07dec7d621dd306f1441,56ba0758c7d621dd306f0ed2,,,,10,false,[  ],5701450512bc878144af19f8,0,56ba07dec7d621dd306f1441,SURVEY,,,,,신대방2동,POST,2016-04-03T16:29:57.849Z
5701450512bc878144af19f8,,[  ],서울특별시 동작구 여의대방로24길 106,서울특별시,KR,대한민국,2016-04-03T16:29:57.830Z,,,,,,,[  ],,,37.4989376659046,18,동작구,126.925864023486,0,56ba07dec7d621dd306f1441,5701450212bc878144af19f6,,,,0,false,[  ],,,,,,,,,신대방2동,SURVEY,2016-04-03T16:29:57.830Z
5703e0ddfe79ff3316c1a6a2,,[  ],"서울특별시 동대문구 제기동,서울특별시 동대문구 제기동  122-428,서울특별시 동대문구 고산자로 534 한신아파트",서울특별시,KR,대한민국,2016-04-05T15:59:25.381Z,,,,,,122-428,[  ],,,37.588146928268955,18,동대문구,127.03840166330338,이강훈,56c4b32cb48c49972b454d0f,56ba33d1be9cff33424ba600,,,,0,false,[  ],,,,,,,,,제기동,MEMBER,2016-04-05T15:59:25.381Z
570da2c29f2855e177c1c23b,,[  ],서울특별시,서울특별시,KR,대한민국,2016-04-13T01:37:06.016Z,,,,,,1,[  ],,,37.642705,18,종로구,126.977091,이강훈,56c4b32cb48c49972b454d0f,56d54975f520a154263f1110,,,,0,false,[  ],,,,,,,,,종로1.2.3.4가동,LIKE,2016-04-13T01:37:06.016Z
5711d695f43ae4f44757c9b8,,[  ],서울특별시 중구 세종대로 110,서울특별시,KR,대한민국,2016-04-16T06:07:17.891Z,,,,,,,[  ],,,37.5663176911162,8,,126.977828381622,영어공부,56ba07dec7d621dd306f1441,56ba074dc7d621dd306f058b,,,,0,false,[  ],,,,,,,,,,COMMUNITY,2016-04-16T06:07:17.891Z
5711d6a8f43ae4f44757c9bc,,[  ],서울특별시 중구 세종대로 110,서울특별시,KR,대한민국,2016-04-16T06:07:36.695Z,,,,,,,[  ],,,37.5663176911162,8,,126.977828381622,영어,56ba07dec7d621dd306f1441,56ba074dc7d621dd306f058b,,,,0,false,[  ],,,,,,,,,,COMMUNITY,2016-04-16T06:07:36.695Z
570929ca3247ba2a233c8d04,,[  ],"서울특별시 종로구 종로1.2.3.4가동,서울특별시 종로구 관철동  45-1,서울특별시 종로구 우정국로2길 21 대왕빌딩",서울특별시,KR,대한민국,2016-04-09T16:11:54.736Z,,,,,,45-1,[  ],,,37.569693296160516,18,종로구,126.9842941313982,양꼬치,56c4b32cb48c49972b454d0f,570928c43247ba2a233c8cf2,,,,0,false,[  ],,,,,,,,,종로1.2.3.4가동,KEYWORD,2016-04-09T16:11:54.736Z
570c476b5e8b38f733797dcc,,[  ],"서울특별시 성북구 안암동,서울특별시 성북구 안암동5가  42-12,서울특별시 성북구 인촌로 117 ",서울특별시,KR,대한민국,2016-04-12T00:55:07.015Z,,,,,,42-12,[  ],,,37.58651856927756,18,성북구,127.03229125589131,커피,56c4b32cb48c49972b454d0f,570c47215e8b38f733797dca,,,,0,false,[  ],,,,,,,,,안암동,KEYWORD,2016-04-12T00:55:07.015Z
571355489826ca861d4a509f,,[  ],"서울특별시 동작구 신대방2동,서울특별시 동작구 신대방동  395-65,서울특별시 동작구 보라매로5길 35 한국컴퓨터빌딩,보라매현대APT",서울특별시,KR,대한민국,2016-04-17T09:20:08.408Z,,,,,,395-65,[  ],,,37.49205245218387,18,동작구,126.92355383187532,아파트,56bb1345138c08014eee6fae,570a887d4b8c13dd21ef2d17,,,,0,false,[  ],,,,,,,,,신대방2동,KEYWORD,2016-04-17T09:20:08.408Z
57172eee581ca1a023672661,,[  ],"서울특별시 관악구 남현동,서울특별시 관악구 남현동  1060-10,서울특별시 관악구 남부순환로 2082-25 삼진장",서울특별시,KR,대한민국,2016-04-20T07:25:34.414Z,,,,,,1060-10,[  ],,,37.476079657320604,18,관악구,126.98098059743643,황사장님 건물,56ba07dec7d621dd306f1441,56c45492591871870e5980c6,,,,0,false,[  ],,,,,,,,,남현동,POST,2016-04-20T07:25:34.414Z
56ba0758c7d621dd306f1017,,[  ],인천광역시 남구 경인로295,인천광역시,KR,대한민국,2016-02-09T15:35:52.673Z,,,,,,,[  ],,,37.4609062845457,14.0,남구,126.67382997598,도화1동 정보센터,,,,,,0,false,[  ],,,,,,,,,도화1동,INFO_CENTER,2016-02-09T15:35:52.673Z
56ba0758c7d621dd306f1019,,[  ],인천광역시 남구 소성로 339,인천광역시,KR,대한민국,2016-02-09T15:35:52.674Z,,,,,,,[  ],,,37.4376833246968,14.0,남구,126.685004330999,문학동 정보센터,,,,,,0,false,[  ],,,,,,,,,문학동,INFO_CENTER,2016-02-09T15:35:52.674Z
56ba0758c7d621dd306f101b,,[  ],인천광역시 남구 경인로34번길 20,인천광역시,KR,대한민국,2016-02-09T15:35:52.676Z,,,,,,,[  ],,,37.4630356628136,14.0,남구,126.647271440447,숭의2동 정보센터,,,,,,0,false,[  ],,,,,,,,,숭의2동,INFO_CENTER,2016-02-09T15:35:52.676Z
56ba0758c7d621dd306f101c,,[  ],인천광역시 남구 경인로156번길 32,인천광역시,KR,대한민국,2016-02-09T15:35:52.677Z,,,,,,,[  ],,,37.4648400609095,14.0,남구,126.659136275257,숭의4동 정보센터,,,,,,0,false,[  ],,,,,,,,,숭의4동,INFO_CENTER,2016-02-09T15:35:52.677Z
56ba0758c7d621dd306f101e,,[  ],인천광역시 남구 낙섬중로 101,인천광역시,KR,대한민국,2016-02-09T15:35:52.678Z,,,,,,,[  ],,,37.4565912147083,14.0,남구,126.64113966006,용현2동 정보센터,,,,,,0,false,[  ],,,,,,,,,용현2동,INFO_CENTER,2016-02-09T15:35:52.678Z
56ba0758c7d621dd306f101f,,[  ],인천광역시 남구 인주대로 133,인천광역시,KR,대한민국,2016-02-09T15:35:52.679Z,,,,,,,[  ],,,37.4567459331442,14.0,남구,126.651898795333,용현3동 정보센터,,,,,,0,false,[  ],,,,,,,,,용현3동,INFO_CENTER,2016-02-09T15:35:52.679Z
56ba0758c7d621dd306f1020,,[  ],인천광역시 남구 토금북로 60,인천광역시,KR,대한민국,2016-02-09T15:35:52.680Z,,,,,,,[  ],,,37.4525484166418,14.0,남구,126.640259355792,용현5동 정보센터,,,,,,0,false,[  ],,,,,,,,,용현5동,INFO_CENTER,2016-02-09T15:35:52.680Z
56ba0758c7d621dd306f1021,,[  ],인천광역시 남구 주안서로53번길 22,인천광역시,KR,대한민국,2016-02-09T15:35:52.681Z,,,,,,,[  ],,,37.463789860749,14.0,남구,126.676580015114,주안1동 정보센터,,,,,,0,false,[  ],,,,,,,,,주안1동,INFO_CENTER,2016-02-09T15:35:52.681Z
56ba0758c7d621dd306f1022,,[  ],인천광역시 남구 남주길43번길 14-29,인천광역시,KR,대한민국,2016-02-09T15:35:52.682Z,,,,,,,[  ],,,37.454700677823,14.0,남구,126.672722196879,주안2동 정보센터,,,,,,0,false,[  ],,,,,,,,,주안2동,INFO_CENTER,2016-02-09T15:35:52.682Z
56ba0758c7d621dd306f1023,,[  ],인천광역시 남구 주승로31번길 28-10,인천광역시,KR,대한민국,2016-02-09T15:35:52.682Z,,,,,,,[  ],,,37.4448832854199,14.0,남구,126.67403063341,주안3동 정보센터,,,,,,0,false,[  ],,,,,,,,,주안3동,INFO_CENTER,2016-02-09T15:35:52.682Z
56ba0758c7d621dd306f1024,,[  ],인천광역시 남구 구월남로 5,인천광역시,KR,대한민국,2016-02-09T15:35:52.683Z,,,,,,,[  ],,,37.4551264778029,14.0,남구,126.690301975606,주안4동 정보센터,,,,,,0,false,[  ],,,,,,,,,주안4동,INFO_CENTER,2016-02-09T15:35:52.683Z
56ba0758c7d621dd306f1025,,[  ],인천광역시 남구 석정로 462,인천광역시,KR,대한민국,2016-02-09T15:35:52.684Z,,,,,,,[  ],,,37.4659192070863,14.0,남구,126.687051708149,주안5동 정보센터,,,,,,0,false,[  ],,,,,,,,,주안5동,INFO_CENTER,2016-02-09T15:35:52.684Z
56ba0758c7d621dd306f1027,,[  ],인천광역시 남구 인하로 265,인천광역시,KR,대한민국,2016-02-09T15:35:52.686Z,,,,,,,[  ],,,37.4484467965674,14.0,남구,126.677649621663,주안7동 정보센터,,,,,,0,false,[  ],,,,,,,,,주안7동,INFO_CENTER,2016-02-09T15:35:52.686Z
56ba0758c7d621dd306f1029,,[  ],인천광역시 남구 매소홀로 380,인천광역시,KR,대한민국,2016-02-09T15:35:52.687Z,,,,,,,[  ],,,37.4398387016591,14.0,남구,126.664117685677,학익1동 정보센터,,,,,,0,false,[  ],,,,,,,,,학익1동,INFO_CENTER,2016-02-09T15:35:52.687Z
56ba0758c7d621dd306f102a,,[  ],인천광역시 남구 한나루로 444,인천광역시,KR,대한민국,2016-02-09T15:35:52.688Z,,,,,,,[  ],,,37.4465841464245,14.0,남구,126.667473271048,학익2동 정보센터,,,,,,0,false,[  ],,,,,,,,,학익2동,INFO_CENTER,2016-02-09T15:35:52.688Z
56ba0758c7d621dd306f1090,,[  ],인천광역시 중구 백년로128번길 21,인천광역시,KR,대한민국,2016-02-09T15:35:52.775Z,,,,,,,[  ],,,37.5009602181745,14.0,중구,126.489336781143,운서동 정보센터,,,,,,0,false,[  ],,,,,,,,,운서동,INFO_CENTER,2016-02-09T15:35:52.775Z
56ba0758c7d621dd306f1092,,[  ],전라남도 강진군 강진읍 초지길 21,전라남도,KR,대한민국,2016-02-09T15:35:52.777Z,,,,,,21,[  ],,,34.6358247899264,14.0,강진군,126.773591388482,강진읍 정보센터,,,,,,0,false,[  ],,,,,,,,,강진읍,INFO_CENTER,2016-02-09T15:35:52.777Z
56ba0758c7d621dd306f1094,,[  ],전라남도 강진군 대구면 수동길 18,전라남도,KR,대한민국,2016-02-09T15:35:52.778Z,,,,,,18,[  ],,,34.4953908822008,14.0,강진군,126.800773263944,대구면 정보센터,,,,,,0,false,[  ],,,,,,,,,대구면,INFO_CENTER,2016-02-09T15:35:52.778Z
56ba0758c7d621dd306f1096,,[  ],전라남도 강진군 마량면 마량8길 20,전라남도,KR,대한민국,2016-02-09T15:35:52.780Z,,,,,,20,[  ],,,34.4506209361835,14.0,강진군,126.819440089968,마량면 정보센터,,,,,,0,false,[  ],,,,,,,,,마량면,INFO_CENTER,2016-02-09T15:35:52.780Z
56ba0758c7d621dd306f1098,,[  ],전라남도 강진군 성전면 예향로 16,전라남도,KR,대한민국,2016-02-09T15:35:52.782Z,,,,,,16,[  ],,,34.6926906901754,14.0,강진군,126.709054924741,성전면 정보센터,,,,,,0,false,[  ],,,,,,,,,성전면,INFO_CENTER,2016-02-09T15:35:52.782Z
56ba0758c7d621dd306f109b,,[  ],전라남도 강진군 작천면 평리3길 2,전라남도,KR,대한민국,2016-02-09T15:35:52.784Z,,,,,,2,[  ],,,34.7042211975628,14.0,강진군,126.7713968327,작천면 정보센터,,,,,,0,false,[  ],,,,,,,,,작천면,INFO_CENTER,2016-02-09T15:35:52.784Z
56ba0758c7d621dd306f109c,,[  ],전라남도 강진군 칠량면 칠량로 67,전라남도,KR,대한민국,2016-02-09T15:35:52.785Z,,,,,,67,[  ],,,34.5728231740453,14.0,강진군,126.799359448004,칠량면 정보센터,,,,,,0,false,[  ],,,,,,,,,칠량면,INFO_CENTER,2016-02-09T15:35:52.785Z
56ba0758c7d621dd306f10a4,,[  ],전라남도 고흥군 도화면 오치길 37,전라남도,KR,대한민국,2016-02-09T15:35:52.791Z,,,,,,37,[  ],,,34.5101522876196,14.0,고흥군,127.317307112863,도화면 정보센터,,,,,,0,false,[  ],,,,,,,,,도화면,INFO_CENTER,2016-02-09T15:35:52.791Z
56ba0758c7d621dd306f10a5,,[  ],전라남도 고흥군 동강면 서민호길 9,전라남도,KR,대한민국,2016-02-09T15:35:52.792Z,,,,,,9,[  ],,,34.7791585134928,14.0,고흥군,127.334406389752,동강면 정보센터,,,,,,0,false,[  ],,,,,,,,,동강면,INFO_CENTER,2016-02-09T15:35:52.792Z
56ba0758c7d621dd306f10a6,,[  ],전라남도 고흥군 동일면 양화길 8,전라남도,KR,대한민국,2016-02-09T15:35:52.793Z,,,,,,8,[  ],,,34.5021131189518,14.0,고흥군,127.467244333399,동일면 정보센터,,,,,,0,false,[  ],,,,,,,,,동일면,INFO_CENTER,2016-02-09T15:35:52.793Z
56ba0758c7d621dd306f10aa,,[  ],전라남도 고흥군 점암면 모룡길 48,전라남도,KR,대한민국,2016-02-09T15:35:52.796Z,,,,,,48,[  ],,,34.6528566501791,14.0,고흥군,127.379460458101,점암면 정보센터,,,,,,0,false,[  ],,,,,,,,,점암면,INFO_CENTER,2016-02-09T15:35:52.796Z
56ba0758c7d621dd306f10ac,,[  ],전라남도 고흥군 풍양면 풍양로 5,전라남도,KR,대한민국,2016-02-09T15:35:52.798Z,,,,,,5,[  ],,,34.5755318784526,14.0,고흥군,127.24198218264,풍양면 정보센터,,,,,,0,false,[  ],,,,,,,,,풍양면,INFO_CENTER,2016-02-09T15:35:52.798Z
56ba0758c7d621dd306f10ad,,[  ],전라남도 곡성군 겸면 곡순로 1860,전라남도,KR,대한민국,2016-02-09T15:35:52.799Z,,,,,,1860,[  ],,,35.2556475659386,14.0,곡성군,127.172437545365,겸면 정보센터,,,,,,0,false,[  ],,,,,,,,,겸면,INFO_CENTER,2016-02-09T15:35:52.799Z
56ba0758c7d621dd306f10ae,,[  ],전라남도 곡성군 고달면 목동1길 1,전라남도,KR,대한민국,2016-02-09T15:35:52.800Z,,,,,,1,[  ],,,35.2956616466023,14.0,곡성군,127.341359055186,고달면 정보센터,,,,,,0,false,[  ],,,,,,,,,고달면,INFO_CENTER,2016-02-09T15:35:52.800Z
56ba0758c7d621dd306f10b2,,[  ],전라남도 곡성군 석곡면 석곡로 70,전라남도,KR,대한민국,2016-02-09T15:35:52.803Z,,,,,,70,[  ],,,35.1329450828019,14.0,곡성군,127.25409594535,석곡면 정보센터,,,,,,0,false,[  ],,,,,,,,,석곡면,INFO_CENTER,2016-02-09T15:35:52.803Z
56ba0758c7d621dd306f10b6,,[  ],전라남도 곡성군 입면 입면로 697,전라남도,KR,대한민국,2016-02-09T15:35:52.806Z,,,,,,697,[  ],,,35.2971320682259,14.0,곡성군,127.204100817523,입면 정보센터,,,,,,0,false,[  ],,,,,,,,,입면,INFO_CENTER,2016-02-09T15:35:52.806Z
56ba0758c7d621dd306f10b7,,[  ],전라남도 곡성군 죽곡면 오죽로 17,전라남도,KR,대한민국,2016-02-09T15:35:52.807Z,,,,,,17,[  ],,,35.1512075191198,14.0,곡성군,127.319244671456,죽곡면 정보센터,,,,,,0,false,[  ],,,,,,,,,죽곡면,INFO_CENTER,2016-02-09T15:35:52.807Z
56ba0758c7d621dd306f10b8,,[  ],전라남도 광양시 수동길 2,전라남도,KR,대한민국,2016-02-09T15:35:52.808Z,,,,,,,[  ],,,34.9385236599414,14.0,광양시,127.678348778991,골약동 정보센터,,,,,,0,false,[  ],,,,,,,,,골약동,INFO_CENTER,2016-02-09T15:35:52.808Z
56ba0758c7d621dd306f10b9,,[  ],전라남도 광양시 광양읍 남등길 6,전라남도,KR,대한민국,2016-02-09T15:35:52.809Z,,,,,,6,[  ],,,34.9733414983965,14.0,광양시,127.581048872109,광양읍 정보센터,,,,,,0,false,[  ],,,,,,,,,광양읍,INFO_CENTER,2016-02-09T15:35:52.809Z
56ba0758c7d621dd306f10ba,,[  ],전라남도 광양시 정수2길 47,전라남도,KR,대한민국,2016-02-09T15:35:52.810Z,,,,,,,[  ],,,34.9629153718725,14.0,광양시,127.72200891865,광영동 정보센터,,,,,,0,false,[  ],,,,,,,,,광영동,INFO_CENTER,2016-02-09T15:35:52.810Z
56ba0758c7d621dd306f10bb,,[  ],전라남도 광양시 희망길 50,전라남도,KR,대한민국,2016-02-09T15:35:52.811Z,,,,,,,[  ],,,34.937699025801,14.0,광양시,127.723175771326,금호동 정보센터,,,,,,0,false,[  ],,,,,,,,,금호동,INFO_CENTER,2016-02-09T15:35:52.811Z
56ba0758c7d621dd306f10bd,,[  ],전라남도 광양시 봉강면 조양길 46,전라남도,KR,대한민국,2016-02-09T15:35:52.812Z,,,,,,46,[  ],,,35.0115066456343,14.0,광양시,127.581550916919,봉강면 정보센터,,,,,,0,false,[  ],,,,,,,,,봉강면,INFO_CENTER,2016-02-09T15:35:52.812Z
56ba0758c7d621dd306f10c4,,[  ],전라남도 구례군 간전면 안음길 7,전라남도,KR,대한민국,2016-02-09T15:35:52.818Z,,,,,,7,[  ],,,35.1779839927499,14.0,구례군,127.544100508118,간전면 정보센터,,,,,,0,false,[  ],,,,,,,,,간전면,INFO_CENTER,2016-02-09T15:35:52.818Z
56ba0758c7d621dd306f10ca,,[  ],전라남도 구례군 용방면 하용길 5,전라남도,KR,대한민국,2016-02-09T15:35:52.823Z,,,,,,5,[  ],,,35.2506614364757,14.0,구례군,127.430158720991,용방면 정보센터,,,,,,0,false,[  ],,,,,,,,,용방면,INFO_CENTER,2016-02-09T15:35:52.823Z
56ba0758c7d621dd306f10d0,,[  ],전라남도 나주시 노안면 금산로 14,전라남도,KR,대한민국,2016-02-09T15:35:52.828Z,,,,,,14,[  ],,,35.0760283263039,14.0,나주시,126.732050537405,노안면 정보센터,,,,,,0,false,[  ],,,,,,,,,노안면,INFO_CENTER,2016-02-09T15:35:52.828Z
56ba0758c7d621dd306f10d3,,[  ],전라남도 나주시 동강면 인동길 28,전라남도,KR,대한민국,2016-02-09T15:35:52.830Z,,,,,,28,[  ],,,34.9393777210556,14.0,나주시,126.563600550616,동강면 정보센터,,,,,,0,false,[  ],,,,,,,,,동강면,INFO_CENTER,2016-02-09T15:35:52.830Z
56ba0758c7d621dd306f10d5,,[  ],전라남도 나주시 반남면 자미로 6,전라남도,KR,대한민국,2016-02-09T15:35:52.832Z,,,,,,6,[  ],,,34.9039668002891,14.0,나주시,126.651551642884,반남면 정보센터,,,,,,0,false,[  ],,,,,,,,,반남면,INFO_CENTER,2016-02-09T15:35:52.832Z
56ba0758c7d621dd306f10e1,,[  ],전라남도 담양군 금성면 석현길 11,전라남도,KR,대한민국,2016-02-09T15:35:52.842Z,,,,,,11,[  ],,,35.3434283419251,14.0,담양군,127.025503514892,금성면 정보센터,,,,,,0,false,[  ],,,,,,,,,금성면,INFO_CENTER,2016-02-09T15:35:52.842Z
56ba0758c7d621dd306f10e2,,[  ],전라남도 담양군 남면 가사문학로 1131,전라남도,KR,대한민국,2016-02-09T15:35:52.843Z,,,,,,1131,[  ],,,35.1774470138478,14.0,담양군,127.027853569438,남면 정보센터,,,,,,0,false,[  ],,,,,,,,,남면,INFO_CENTER,2016-02-09T15:35:52.843Z
56ba0758c7d621dd306f10e3,,[  ],전라남도 담양군 담양읍 중앙로 83,전라남도,KR,대한민국,2016-02-09T15:35:52.844Z,,,,,,83,[  ],,,35.3204240187986,14.0,담양군,126.981832353893,담양읍 정보센터,,,,,,0,false,[  ],,,,,,,,,담양읍,INFO_CENTER,2016-02-09T15:35:52.844Z
56ba0758c7d621dd306f10e6,,[  ],전라남도 담양군 술지1길 5-12,전라남도,KR,대한민국,2016-02-09T15:35:52.847Z,,,,,,,[  ],,,35.2947371735685,14.0,담양군,127.029890184499,무정면 정보센터,,,,,,0,false,[  ],,,,,,,,,무정면,INFO_CENTER,2016-02-09T15:35:52.847Z
56ba0758c7d621dd306f10e9,,[  ],전라남도 담양군 용면 추월산로 369,전라남도,KR,대한민국,2016-02-09T15:35:52.849Z,,,,,,369,[  ],,,35.3644926505857,14.0,담양군,126.987205318871,용면 정보센터,,,,,,0,false,[  ],,,,,,,,,용면,INFO_CENTER,2016-02-09T15:35:52.849Z
56ba0758c7d621dd306f10eb,,[  ],전라남도 담양군 창평면 돌담길 9,전라남도,KR,대한민국,2016-02-09T15:35:52.851Z,,,,,,9,[  ],,,35.2389137306766,14.0,담양군,127.019133827953,창평면 정보센터,,,,,,0,false,[  ],,,,,,,,,창평면,INFO_CENTER,2016-02-09T15:35:52.851Z
56ba0758c7d621dd306f1105,,[  ],전라남도 무안군 무안읍 성내1길 2,전라남도,KR,대한민국,2016-02-09T15:35:52.883Z,,,,,,2,[  ],,,34.9905231193367,14.0,무안군,126.476341135669,무안읍 정보센터,,,,,,0,false,[  ],,,,,,,,,무안읍,INFO_CENTER,2016-02-09T15:35:52.883Z
56ba0758c7d621dd306f1106,,[  ],전라남도 무안군 삼향읍 신기길 20,전라남도,KR,대한민국,2016-02-09T15:35:52.886Z,,,,,,20,[  ],,,34.8233362595423,14.0,무안군,126.441889823682,삼향읍 정보센터,,,,,,0,false,[  ],,,,,,,,,삼향읍,INFO_CENTER,2016-02-09T15:35:52.886Z
56ba0758c7d621dd306f110b,,[  ],전라남도 무안군 현경면 현해로 84,전라남도,KR,대한민국,2016-02-09T15:35:52.890Z,,,,,,84,[  ],,,35.0211214489489,14.0,무안군,126.412262653423,현경면 정보센터,,,,,,0,false,[  ],,,,,,,,,현경면,INFO_CENTER,2016-02-09T15:35:52.890Z
56ba0758c7d621dd306f110d,,[  ],전라남도 보성군 노동면 광곡길 28,전라남도,KR,대한민국,2016-02-09T15:35:52.892Z,,,,,,28,[  ],,,34.7973010206386,14.0,보성군,127.070774858166,노동면 정보센터,,,,,,0,false,[  ],,,,,,,,,노동면,INFO_CENTER,2016-02-09T15:35:52.892Z
56ba0758c7d621dd306f110e,,[  ],전라남도 보성군 득량면 역전길 13,전라남도,KR,대한민국,2016-02-09T15:35:52.893Z,,,,,,13,[  ],,,34.7622116799725,14.0,보성군,127.168757445123,득량면 정보센터,,,,,,0,false,[  ],,,,,,,,,득량면,INFO_CENTER,2016-02-09T15:35:52.893Z
56ba0758c7d621dd306f110f,,[  ],전라남도 보성군 문덕면 장운길 40,전라남도,KR,대한민국,2016-02-09T15:35:52.894Z,,,,,,40,[  ],,,34.9290666544586,14.0,보성군,127.172964119458,문덕면 정보센터,,,,,,0,false,[  ],,,,,,,,,문덕면,INFO_CENTER,2016-02-09T15:35:52.894Z
56ba0758c7d621dd306f1112,,[  ],전라남도 보성군 보성읍 신흥길 17,전라남도,KR,대한민국,2016-02-09T15:35:52.897Z,,,,,,17,[  ],,,34.7684247273188,14.0,보성군,127.080070242796,보성읍 정보센터,,,,,,0,false,[  ],,,,,,,,,보성읍,INFO_CENTER,2016-02-09T15:35:52.897Z
56ba0758c7d621dd306f1120,,[  ],전라남도 순천시 서면 임촌동길 94,전라남도,KR,대한민국,2016-02-09T15:35:52.909Z,,,,,,94,[  ],,,34.9947368888091,14.0,순천시,127.488446189874,서면 정보센터,,,,,,0,false,[  ],,,,,,,,,서면,INFO_CENTER,2016-02-09T15:35:52.909Z
56ba0758c7d621dd306f1137,,[  ],전라남도 신안군 자은면 구영1길 8,전라남도,KR,대한민국,2016-02-09T15:35:52.950Z,,,,,,8,[  ],,,34.8844259402756,14.0,신안군,126.047410997672,자은면 정보센터,,,,,,0,false,[  ],,,,,,,,,자은면,INFO_CENTER,2016-02-09T15:35:52.950Z
56ba0758c7d621dd306f113c,,[  ],전라남도 신안군 하의면 곰실길 12,전라남도,KR,대한민국,2016-02-09T15:35:52.954Z,,,,,,12,[  ],,,34.6070738896462,14.0,신안군,126.036609277168,하의면 정보센터,,,,,,0,false,[  ],,,,,,,,,하의면,INFO_CENTER,2016-02-09T15:35:52.954Z
56ba0758c7d621dd306f1140,,[  ],전라남도 여수시 남면 내외진길 10,전라남도,KR,대한민국,2016-02-09T15:35:52.957Z,,,,,,10,[  ],,,34.5095908139072,14.0,여수시,127.766564886874,남면 정보센터,,,,,,0,false,[  ],,,,,,,,,남면,INFO_CENTER,2016-02-09T15:35:52.957Z
56ba0758c7d621dd306f1145,,[  ],전라남도 여수시 덕충안길 95,전라남도,KR,대한민국,2016-02-09T15:35:52.960Z,,,,,,,[  ],,,34.7536614677064,14.0,여수시,127.746599378161,만덕동 정보센터,,,,,,0,false,[  ],,,,,,,,,만덕동,INFO_CENTER,2016-02-09T15:35:52.960Z
56ba0758c7d621dd306f1149,,[  ],전라남도 여수시 삼산면 거문길 28,전라남도,KR,대한민국,2016-02-09T15:35:52.963Z,,,,,,28,[  ],,,34.0259214413648,14.0,여수시,127.311292435773,삼산면 정보센터,,,,,,0,false,[  ],,,,,,,,,삼산면,INFO_CENTER,2016-02-09T15:35:52.963Z
56ba0758c7d621dd306f1152,,[  ],전라남도 여수시 율촌면 동산개길 8,전라남도,KR,대한민국,2016-02-09T15:35:52.970Z,,,,,,8,[  ],,,34.8817650893162,14.0,여수시,127.57878034049,율촌면 정보센터,,,,,,0,false,[  ],,,,,,,,,율촌면,INFO_CENTER,2016-02-09T15:35:52.970Z
56ba0758c7d621dd306f115b,,[  ],전라남도 영광군 낙월면 낙월길 64,전라남도,KR,대한민국,2016-02-09T15:35:52.976Z,,,,,,64,[  ],,,35.2021277911421,14.0,영광군,126.137795850807,낙월면 정보센터,,,,,,0,false,[  ],,,,,,,,,낙월면,INFO_CENTER,2016-02-09T15:35:52.976Z
56ba0758c7d621dd306f115e,,[  ],전라남도 영광군 백수읍 천마길 13,전라남도,KR,대한민국,2016-02-09T15:35:52.978Z,,,,,,13,[  ],,,35.283413248483,14.0,영광군,126.420587331919,백수읍 정보센터,,,,,,0,false,[  ],,,,,,,,,백수읍,INFO_CENTER,2016-02-09T15:35:52.978Z
56ba0758c7d621dd306f1163,,[  ],전라남도 영광군 홍농읍 상하길 43,전라남도,KR,대한민국,2016-02-09T15:35:52.982Z,,,,,,43,[  ],,,35.3960900962261,14.0,영광군,126.445456155669,홍농읍 정보센터,,,,,,0,false,[  ],,,,,,,,,홍농읍,INFO_CENTER,2016-02-09T15:35:52.982Z
56ba0758c7d621dd306f1165,,[  ],전라남도 영암군 금정면 용두로 14,전라남도,KR,대한민국,2016-02-09T15:35:52.983Z,,,,,,14,[  ],,,34.862940898386,14.0,영암군,126.748893890638,금정면 정보센터,,,,,,0,false,[  ],,,,,,,,,금정면,INFO_CENTER,2016-02-09T15:35:52.983Z
56ba0758c7d621dd306f1167,,[  ],전라남도 영암군 도포면 호산로 43,전라남도,KR,대한민국,2016-02-09T15:35:52.985Z,,,,,,43,[  ],,,34.8454467431677,14.0,영암군,126.643598181847,도포면 정보센터,,,,,,0,false,[  ],,,,,,,,,도포면,INFO_CENTER,2016-02-09T15:35:52.985Z
56ba0758c7d621dd306f1168,,[  ],전라남도 영암군 미암면 미중로 39,전라남도,KR,대한민국,2016-02-09T15:35:52.985Z,,,,,,39,[  ],,,34.6992735827869,14.0,영암군,126.571810884694,미암면 정보센터,,,,,,0,false,[  ],,,,,,,,,미암면,INFO_CENTER,2016-02-09T15:35:52.985Z
56ba0758c7d621dd306f117b,,[  ],전라남도 장성군 남면 못재로 85,전라남도,KR,대한민국,2016-02-09T15:35:52.999Z,,,,,,85,[  ],,,35.2442676560422,14.0,장성군,126.812134356326,남면 정보센터,,,,,,0,false,[  ],,,,,,,,,남면,INFO_CENTER,2016-02-09T15:35:52.999Z
56ba0759c7d621dd306f117d,,[  ],전라남도 장성군 북이면 백양로 26,전라남도,KR,대한민국,2016-02-09T15:35:53.000Z,,,,,,26,[  ],,,35.4287612091085,14.0,장성군,126.80867196784,북이면 정보센터,,,,,,0,false,[  ],,,,,,,,,북이면,INFO_CENTER,2016-02-09T15:35:53.000Z
56ba0759c7d621dd306f117e,,[  ],전라남도 장성군 북일면 북부1길 2,전라남도,KR,대한민국,2016-02-09T15:35:53.001Z,,,,,,2,[  ],,,35.3747518686325,14.0,장성군,126.807329304143,북일면 정보센터,,,,,,0,false,[  ],,,,,,,,,북일면,INFO_CENTER,2016-02-09T15:35:53.001Z
56ba0759c7d621dd306f117f,,[  ],전라남도 장성군 북하면 약수2길 2,전라남도,KR,대한민국,2016-02-09T15:35:53.002Z,,,,,,2,[  ],,,35.4073652945906,14.0,장성군,126.87961705125,북하면 정보센터,,,,,,0,false,[  ],,,,,,,,,북하면,INFO_CENTER,2016-02-09T15:35:53.002Z
56ba0759c7d621dd306f1186,,[  ],전라남도 장흥군 관산읍 관산로 71,전라남도,KR,대한민국,2016-02-09T15:35:53.007Z,,,,,,71,[  ],,,34.5615965224973,14.0,장흥군,126.938922804013,관산읍 정보센터,,,,,,0,false,[  ],,,,,,,,,관산읍,INFO_CENTER,2016-02-09T15:35:53.007Z
56ba0759c7d621dd306f1188,,[  ],전라남도 장흥군 부산면 부유로 30,전라남도,KR,대한민국,2016-02-09T15:35:53.008Z,,,,,,30,[  ],,,34.7234029901221,14.0,장흥군,126.903395743278,부산면 정보센터,,,,,,0,false,[  ],,,,,,,,,부산면,INFO_CENTER,2016-02-09T15:35:53.008Z
56ba0759c7d621dd306f118b,,[  ],전라남도 장흥군 유치면 유치로 22,전라남도,KR,대한민국,2016-02-09T15:35:53.010Z,,,,,,22,[  ],,,34.8022335352091,14.0,장흥군,126.838517813703,유치면 정보센터,,,,,,0,false,[  ],,,,,,,,,유치면,INFO_CENTER,2016-02-09T15:35:53.010Z
56ba0759c7d621dd306f118c,,[  ],전라남도 장흥군 장동면 신북1길 35,전라남도,KR,대한민국,2016-02-09T15:35:53.011Z,,,,,,35,[  ],,,34.7499538417495,14.0,장흥군,126.995290777036,장동면 정보센터,,,,,,0,false,[  ],,,,,,,,,장동면,INFO_CENTER,2016-02-09T15:35:53.011Z
56ba0759c7d621dd306f1193,,[  ],전라남도 진도군 임회면 석교길 48,전라남도,KR,대한민국,2016-02-09T15:35:53.016Z,,,,,,48,[  ],,,34.4061180258789,14.0,진도군,126.189958472583,임회면 정보센터,,,,,,0,false,[  ],,,,,,,,,임회면,INFO_CENTER,2016-02-09T15:35:53.016Z
56ba0759c7d621dd306f1194,,[  ],전라남도 진도군 조도면 창리길 49,전라남도,KR,대한민국,2016-02-09T15:35:53.017Z,,,,,,49,[  ],,,34.2965839718288,14.0,진도군,126.047454299653,조도면 정보센터,,,,,,0,false,[  ],,,,,,,,,조도면,INFO_CENTER,2016-02-09T15:35:53.017Z
56ba0759c7d621dd306f1196,,[  ],전라남도 진도군 진도읍 남동1길 46,전라남도,KR,대한민국,2016-02-09T15:35:53.018Z,,,,,,46,[  ],,,34.4807821895601,14.0,진도군,126.262911506415,진도읍 정보센터,,,,,,0,false,[  ],,,,,,,,,진도읍,INFO_CENTER,2016-02-09T15:35:53.018Z
56ba0759c7d621dd306f119b,,[  ],전라남도 함평군 엄다면 엄다길 53,전라남도,KR,대한민국,2016-02-09T15:35:53.022Z,,,,,,53,[  ],,,35.0103300766345,14.0,함평군,126.515917852491,엄다면 정보센터,,,,,,0,false,[  ],,,,,,,,,엄다면,INFO_CENTER,2016-02-09T15:35:53.022Z
56ba0759c7d621dd306f119c,,[  ],전라남도 함평군 월야면 전하길 65,전라남도,KR,대한민국,2016-02-09T15:35:53.022Z,,,,,,65,[  ],,,35.1800574934337,14.0,함평군,126.632245570147,월야면 정보센터,,,,,,0,false,[  ],,,,,,,,,월야면,INFO_CENTER,2016-02-09T15:35:53.022Z
56ba0759c7d621dd306f11a1,,[  ],전라남도 해남군 문내면 동영길 10,전라남도,KR,대한민국,2016-02-09T15:35:53.026Z,,,,,,10,[  ],,,34.5971406435536,14.0,해남군,126.314047936484,문내면 정보센터,,,,,,0,false,[  ],,,,,,,,,문내면,INFO_CENTER,2016-02-09T15:35:53.026Z
56ba0759c7d621dd306f11a3,,[  ],전라남도 해남군 북일면 장고봉로 5,전라남도,KR,대한민국,2016-02-09T15:35:53.027Z,,,,,,5,[  ],,,34.4641968555611,14.0,해남군,126.676092804293,북일면 정보센터,,,,,,0,false,[  ],,,,,,,,,북일면,INFO_CENTER,2016-02-09T15:35:53.027Z
56ba0759c7d621dd306f11a4,,[  ],전라남도 해남군 북평면 달량진길 8,전라남도,KR,대한민국,2016-02-09T15:35:53.028Z,,,,,,8,[  ],,,34.4083244473402,14.0,해남군,126.625623647711,북평면 정보센터,,,,,,0,false,[  ],,,,,,,,,북평면,INFO_CENTER,2016-02-09T15:35:53.028Z
56ba0759c7d621dd306f11a6,,[  ],전라남도 해남군 삼산면 신기큰길 7,전라남도,KR,대한민국,2016-02-09T15:35:53.029Z,,,,,,7,[  ],,,34.5211514735796,14.0,해남군,126.609754337609,삼산면 정보센터,,,,,,0,false,[  ],,,,,,,,,삼산면,INFO_CENTER,2016-02-09T15:35:53.029Z
56ba0759c7d621dd306f11a7,,[  ],전라남도 해남군 송지면 산정1길 96,전라남도,KR,대한민국,2016-02-09T15:35:53.030Z,,,,,,96,[  ],,,34.3693916263444,14.0,해남군,126.519230466367,송지면 정보센터,,,,,,0,false,[  ],,,,,,,,,송지면,INFO_CENTER,2016-02-09T15:35:53.030Z
56ba0759c7d621dd306f11a8,,[  ],전라남도 해남군 옥천면 해강로 5,전라남도,KR,대한민국,2016-02-09T15:35:53.031Z,,,,,,5,[  ],,,34.567471761691,14.0,해남군,126.647870094027,옥천면 정보센터,,,,,,0,false,[  ],,,,,,,,,옥천면,INFO_CENTER,2016-02-09T15:35:53.031Z
56ba0759c7d621dd306f11ac,,[  ],전라남도 해남군 화원면 금평길 32,전라남도,KR,대한민국,2016-02-09T15:35:53.034Z,,,,,,32,[  ],,,34.6709252284331,14.0,해남군,126.327999282253,화원면 정보센터,,,,,,0,false,[  ],,,,,,,,,화원면,INFO_CENTER,2016-02-09T15:35:53.034Z
56ba0759c7d621dd306f11ad,,[  ],전라남도 해남군 황산면 시등로 70,전라남도,KR,대한민국,2016-02-09T15:35:53.034Z,,,,,,70,[  ],,,34.5770720475825,14.0,해남군,126.436779598039,황산면 정보센터,,,,,,0,false,[  ],,,,,,,,,황산면,INFO_CENTER,2016-02-09T15:35:53.034Z
56ba0759c7d621dd306f11ae,,[  ],전라남도 화순군 남면 사호로 229,전라남도,KR,대한민국,2016-02-09T15:35:53.035Z,,,,,,229,[  ],,,35.0073058704804,14.0,화순군,127.095863204668,남면 정보센터,,,,,,0,false,[  ],,,,,,,,,남면,INFO_CENTER,2016-02-09T15:35:53.035Z
56ba0759c7d621dd306f11af,,[  ],전라남도 화순군 능주면 죽수길 73,전라남도,KR,대한민국,2016-02-09T15:35:53.036Z,,,,,,73,[  ],,,34.9896439656385,14.0,화순군,126.957612115192,능주면 정보센터,,,,,,0,false,[  ],,,,,,,,,능주면,INFO_CENTER,2016-02-09T15:35:53.036Z
56ba0759c7d621dd306f11b0,,[  ],전라남도 화순군 도곡면 효자1길 20,전라남도,KR,대한민국,2016-02-09T15:35:53.037Z,,,,,,20,[  ],,,34.9961709965058,14.0,화순군,126.917509044657,도곡면 정보센터,,,,,,0,false,[  ],,,,,,,,,도곡면,INFO_CENTER,2016-02-09T15:35:53.037Z
56ba0759c7d621dd306f11b2,,[  ],전라남도 화순군 동면 충의로 751,전라남도,KR,대한민국,2016-02-09T15:35:53.038Z,,,,,,751,[  ],,,35.0299406353219,14.0,화순군,127.038511901467,동면 정보센터,,,,,,0,false,[  ],,,,,,,,,동면,INFO_CENTER,2016-02-09T15:35:53.038Z
56ba0759c7d621dd306f11b3,,[  ],전라남도 화순군 동복면 석등길 1,전라남도,KR,대한민국,2016-02-09T15:35:53.039Z,,,,,,1,[  ],,,35.0709567701629,14.0,화순군,127.127943064558,동복면 정보센터,,,,,,0,false,[  ],,,,,,,,,동복면,INFO_CENTER,2016-02-09T15:35:53.039Z
56ba0759c7d621dd306f11b4,,[  ],전라남도 화순군 북면 학천길 26,전라남도,KR,대한민국,2016-02-09T15:35:53.039Z,,,,,,26,[  ],,,35.168094001891,14.0,화순군,127.132288168121,북면 정보센터,,,,,,0,false,[  ],,,,,,,,,북면,INFO_CENTER,2016-02-09T15:35:53.039Z
56ba0759c7d621dd306f11b6,,[  ],전라남도 화순군 이양면 이양로 91,전라남도,KR,대한민국,2016-02-09T15:35:53.041Z,,,,,,91,[  ],,,34.8879268759611,14.0,화순군,126.988601116751,이양면 정보센터,,,,,,0,false,[  ],,,,,,,,,이양면,INFO_CENTER,2016-02-09T15:35:53.041Z
56ba0759c7d621dd306f11b8,,[  ],전라남도 화순군 춘양면 돌정3길 12,전라남도,KR,대한민국,2016-02-09T15:35:53.042Z,,,,,,12,[  ],,,34.9505100609031,14.0,화순군,126.959817436379,춘양면 정보센터,,,,,,0,false,[  ],,,,,,,,,춘양면,INFO_CENTER,2016-02-09T15:35:53.042Z
56ba0759c7d621dd306f11bd,,[  ],전라북도 고창군 공음면 공음길 35,전라북도,KR,대한민국,2016-02-09T15:35:53.047Z,,,,,,35,[  ],,,35.377890646359,14.0,고창군,126.511399438854,공음면 정보센터,,,,,,0,false,[  ],,,,,,,,,공음면,INFO_CENTER,2016-02-09T15:35:53.047Z
56ba0759c7d621dd306f11bf,,[  ],전라북도 고창군 무장면 녹두로 8,전라북도,KR,대한민국,2016-02-09T15:35:53.048Z,,,,,,8,[  ],,,35.4193992208463,14.0,고창군,126.560529638452,무장면 정보센터,,,,,,0,false,[  ],,,,,,,,,무장면,INFO_CENTER,2016-02-09T15:35:53.048Z
56ba0759c7d621dd306f11c2,,[  ],전라북도 고창군 성내면 시기2길 6,전라북도,KR,대한민국,2016-02-09T15:35:53.050Z,,,,,,6,[  ],,,35.5380408353032,14.0,고창군,126.743340516618,성내면 정보센터,,,,,,0,false,[  ],,,,,,,,,성내면,INFO_CENTER,2016-02-09T15:35:53.050Z
56ba0759c7d621dd306f11c7,,[  ],전라북도 고창군 해리면 청해2길 38,전라북도,KR,대한민국,2016-02-09T15:35:53.054Z,,,,,,38,[  ],,,35.4609561185188,14.0,고창군,126.539086243354,해리면 정보센터,,,,,,0,false,[  ],,,,,,,,,해리면,INFO_CENTER,2016-02-09T15:35:53.054Z
56ba0759c7d621dd306f11c8,,[  ],전라북도 고창군 흥덕면 문화2길 27,전라북도,KR,대한민국,2016-02-09T15:35:53.055Z,,,,,,27,[  ],,,35.5177966903276,14.0,고창군,126.703625333486,흥덕면 정보센터,,,,,,0,false,[  ],,,,,,,,,흥덕면,INFO_CENTER,2016-02-09T15:35:53.055Z
56ba0759c7d621dd306f11e7,,[  ],전라북도 김제시 향교길 15,전라북도,KR,대한민국,2016-02-09T15:35:53.078Z,,,,,,,[  ],,,35.7992627650718,14.0,김제시,126.877019620737,교월동 정보센터,,,,,,0,false,[  ],,,,,,,,,교월동,INFO_CENTER,2016-02-09T15:35:53.078Z
56ba0759c7d621dd306f11e8,,[  ],전라북도 김제시 금구면 금구로 44,전라북도,KR,대한민국,2016-02-09T15:35:53.078Z,,,,,,44,[  ],,,35.7743853003406,14.0,김제시,127.011307257313,금구면 정보센터,,,,,,0,false,[  ],,,,,,,,,금구면,INFO_CENTER,2016-02-09T15:35:53.078Z
56ba0759c7d621dd306f11e9,,[  ],전라북도 김제시 금산면 원평8길 27,전라북도,KR,대한민국,2016-02-09T15:35:53.079Z,,,,,,27,[  ],,,35.7165673672496,14.0,김제시,126.996198273868,금산면 정보센터,,,,,,0,false,[  ],,,,,,,,,금산면,INFO_CENTER,2016-02-09T15:35:53.079Z
56ba0759c7d621dd306f11ec,,[  ],전라북도 김제시 백산면 학당길 18,전라북도,KR,대한민국,2016-02-09T15:35:53.081Z,,,,,,18,[  ],,,35.8282546260791,14.0,김제시,126.892132251377,백산면 정보센터,,,,,,0,false,[  ],,,,,,,,,백산면,INFO_CENTER,2016-02-09T15:35:53.081Z
56ba0759c7d621dd306f11ef,,[  ],전라북도 김제시 성덕면 석동1길 23,전라북도,KR,대한민국,2016-02-09T15:35:53.084Z,,,,,,23,[  ],,,35.8205431992842,14.0,김제시,126.805846290831,성덕면 정보센터,,,,,,0,false,[  ],,,,,,,,,성덕면,INFO_CENTER,2016-02-09T15:35:53.084Z
56ba0759c7d621dd306f11f0,,[  ],전라북도 김제시 중앙10길 11,전라북도,KR,대한민국,2016-02-09T15:35:53.084Z,,,,,,,[  ],,,35.7962826791813,14.0,김제시,126.897635958063,신풍동 정보센터,,,,,,0,false,[  ],,,,,,,,,신풍동,INFO_CENTER,2016-02-09T15:35:53.084Z
56ba0759c7d621dd306f11f1,,[  ],전라북도 김제시 요촌중길 50,전라북도,KR,대한민국,2016-02-09T15:35:53.085Z,,,,,,,[  ],,,35.804766995052,14.0,김제시,126.891274493302,요촌동 정보센터,,,,,,0,false,[  ],,,,,,,,,요촌동,INFO_CENTER,2016-02-09T15:35:53.085Z
56ba0759c7d621dd306f11f3,,[  ],전라북도 김제시 죽산면 죽산3길 3,전라북도,KR,대한민국,2016-02-09T15:35:53.086Z,,,,,,3,[  ],,,35.7723738275634,14.0,김제시,126.8135146841,죽산면 정보센터,,,,,,0,false,[  ],,,,,,,,,죽산면,INFO_CENTER,2016-02-09T15:35:53.086Z
56ba0759c7d621dd306f11f6,,[  ],전라북도 김제시 황산면 용마로 59,전라북도,KR,대한민국,2016-02-09T15:35:53.089Z,,,,,,59,[  ],,,35.7945532984532,14.0,김제시,126.942630821767,황산면 정보센터,,,,,,0,false,[  ],,,,,,,,,황산면,INFO_CENTER,2016-02-09T15:35:53.089Z
56ba0759c7d621dd306f11f7,,[  ],전라북도 남원시 가방뜰길 8,전라북도,KR,대한민국,2016-02-09T15:35:53.089Z,,,,,,,[  ],,,35.4024361923997,14.0,남원시,127.375432693569,금동 정보센터,,,,,,0,false,[  ],,,,,,,,,금동,INFO_CENTER,2016-02-09T15:35:53.089Z
56ba0759c7d621dd306f11f9,,[  ],전라북도 남원시 소리길 10,전라북도,KR,대한민국,2016-02-09T15:35:53.091Z,,,,,,,[  ],,,35.399551054378,14.0,남원시,127.3803377011,노암동 정보센터,,,,,,0,false,[  ],,,,,,,,,노암동,INFO_CENTER,2016-02-09T15:35:53.091Z
56ba0759c7d621dd306f11fb,,[  ],전라북도 남원시 대산면 운교1길 26,전라북도,KR,대한민국,2016-02-09T15:35:53.092Z,,,,,,26,[  ],,,35.4322458787166,14.0,남원시,127.325243977487,대산면 정보센터,,,,,,0,false,[  ],,,,,,,,,대산면,INFO_CENTER,2016-02-09T15:35:53.092Z
56ba0759c7d621dd306f11fd,,[  ],전라북도 남원시 역재3길 8,전라북도,KR,대한민국,2016-02-09T15:35:53.094Z,,,,,,,[  ],,,35.4198281880617,14.0,남원시,127.400071792256,도통동 정보센터,,,,,,0,false,[  ],,,,,,,,,도통동,INFO_CENTER,2016-02-09T15:35:53.094Z
56ba0759c7d621dd306f11fe,,[  ],전라북도 남원시 향단로 86,전라북도,KR,대한민국,2016-02-09T15:35:53.094Z,,,,,,,[  ],,,35.4109529917702,14.0,남원시,127.383099618566,동충동 정보센터,,,,,,0,false,[  ],,,,,,,,,동충동,INFO_CENTER,2016-02-09T15:35:53.094Z
56ba0759c7d621dd306f11ff,,[  ],전라북도 남원시 보절면 신흥2길 17,전라북도,KR,대한민국,2016-02-09T15:35:53.095Z,,,,,,17,[  ],,,35.5131526378394,14.0,남원시,127.402372958624,보절면 정보센터,,,,,,0,false,[  ],,,,,,,,,보절면,INFO_CENTER,2016-02-09T15:35:53.095Z
56ba0759c7d621dd306f1201,,[  ],전라북도 남원시 산내면 대정길 21,전라북도,KR,대한민국,2016-02-09T15:35:53.096Z,,,,,,21,[  ],,,35.4190351561084,14.0,남원시,127.623737217625,산내면 정보센터,,,,,,0,false,[  ],,,,,,,,,산내면,INFO_CENTER,2016-02-09T15:35:53.096Z
56ba0759c7d621dd306f1203,,[  ],전라북도 남원시 송동면 송기길 56,전라북도,KR,대한민국,2016-02-09T15:35:53.098Z,,,,,,56,[  ],,,35.3544579161519,14.0,남원시,127.337245136351,송동면 정보센터,,,,,,0,false,[  ],,,,,,,,,송동면,INFO_CENTER,2016-02-09T15:35:53.098Z
56ba0759c7d621dd306f1206,,[  ],전라북도 남원시 성황단길 7,전라북도,KR,대한민국,2016-02-09T15:35:53.100Z,,,,,,,[  ],,,35.408391248944,14.0,남원시,127.369863218157,왕정동 정보센터,,,,,,0,false,[  ],,,,,,,,,왕정동,INFO_CENTER,2016-02-09T15:35:53.100Z
56ba0759c7d621dd306f1208,,[  ],전라북도 남원시 이백면 입촌길 16,전라북도,KR,대한민국,2016-02-09T15:35:53.101Z,,,,,,16,[  ],,,35.4271068357926,14.0,남원시,127.458011942232,이백면 정보센터,,,,,,0,false,[  ],,,,,,,,,이백면,INFO_CENTER,2016-02-09T15:35:53.101Z
56ba0759c7d621dd306f120c,,[  ],전라북도 남원시 비석길 72,전라북도,KR,대한민국,2016-02-09T15:35:53.104Z,,,,,,,[  ],,,35.4075810810555,14.0,남원시,127.384545671812,죽항동 정보센터,,,,,,0,false,[  ],,,,,,,,,죽항동,INFO_CENTER,2016-02-09T15:35:53.104Z
56ba0759c7d621dd306f120d,,[  ],전라북도 남원시 붕맛1길 10,전라북도,KR,대한민국,2016-02-09T15:35:53.105Z,,,,,,,[  ],,,35.4172155590422,14.0,남원시,127.380746606154,향교동 정보센터,,,,,,0,false,[  ],,,,,,,,,향교동,INFO_CENTER,2016-02-09T15:35:53.105Z
56ba0759c7d621dd306f120e,,[  ],전라북도 무주군 무주읍 향학로 49,전라북도,KR,대한민국,2016-02-09T15:35:53.106Z,,,,,,49,[  ],,,36.0086584853646,14.0,무주군,127.661841942788,무주읍 정보센터,,,,,,0,false,[  ],,,,,,,,,무주읍,INFO_CENTER,2016-02-09T15:35:53.106Z
56ba0759c7d621dd306f1210,,[  ],전라북도 무주군 부남면 대소길 3,전라북도,KR,대한민국,2016-02-09T15:35:53.107Z,,,,,,3,[  ],,,35.9737798842513,14.0,무주군,127.559429840885,부남면 정보센터,,,,,,0,false,[  ],,,,,,,,,부남면,INFO_CENTER,2016-02-09T15:35:53.107Z
56ba0759c7d621dd306f1215,,[  ],전라북도 부안군 동진면 동진로 89,전라북도,KR,대한민국,2016-02-09T15:35:53.111Z,,,,,,89,[  ],,,35.7493353155563,14.0,부안군,126.738767763072,동진면 정보센터,,,,,,0,false,[  ],,,,,,,,,동진면,INFO_CENTER,2016-02-09T15:35:53.111Z
56ba0757c7d621dd306f0a11,,[  ],경상남도 진주시 내동면 순환로 389,경상남도,KR,대한민국,2016-02-09T15:35:51.307Z,,,,,,389,[  ],,,35.1602107040146,14.0,진주시,128.067920232851,내동면 정보센터,,,,,,0,false,[  ],,,,,,,,,내동면,INFO_CENTER,2016-02-09T15:35:51.307Z
56ba0757c7d621dd306f0a12,,[  ],경상남도 진주시 대곡면 진의로 1094,경상남도,KR,대한민국,2016-02-09T15:35:51.307Z,,,,,,1094,[  ],,,35.26448541031,14.0,진주시,128.169129300179,대곡면 정보센터,,,,,,0,false,[  ],,,,,,,,,대곡면,INFO_CENTER,2016-02-09T15:35:51.307Z
56ba0757c7d621dd306f0a14,,[  ],경상남도 진주시 명석면 광제산로 37,경상남도,KR,대한민국,2016-02-09T15:35:51.309Z,,,,,,37,[  ],,,35.2197648885738,14.0,진주시,128.040209570962,명석면 정보센터,,,,,,0,false,[  ],,,,,,,,,명석면,INFO_CENTER,2016-02-09T15:35:51.309Z
56ba0757c7d621dd306f0a16,,[  ],경상남도 진주시 미천면 오방로 731,경상남도,KR,대한민국,2016-02-09T15:35:51.310Z,,,,,,731,[  ],,,35.2992128294994,14.0,진주시,128.115381011062,미천면 정보센터,,,,,,0,false,[  ],,,,,,,,,미천면,INFO_CENTER,2016-02-09T15:35:51.310Z
56ba0757c7d621dd306f0a17,,[  ],경상남도 진주시 사봉면 사군로 105,경상남도,KR,대한민국,2016-02-09T15:35:51.311Z,,,,,,105,[  ],,,35.1890269561218,14.0,진주시,128.270334452982,사봉면 정보센터,,,,,,0,false,[  ],,,,,,,,,사봉면,INFO_CENTER,2016-02-09T15:35:51.311Z
56ba0757c7d621dd306f0a1d,,[  ],경상남도 진주시 수곡면 곤수로 972,경상남도,KR,대한민국,2016-02-09T15:35:51.315Z,,,,,,972,[  ],,,35.1986422720354,14.0,진주시,127.932165608365,수곡면 정보센터,,,,,,0,false,[  ],,,,,,,,,수곡면,INFO_CENTER,2016-02-09T15:35:51.315Z
56ba0757c7d621dd306f0a24,,[  ],경상남도 진주시 지수면 지수로 483,경상남도,KR,대한민국,2016-02-09T15:35:51.322Z,,,,,,483,[  ],,,35.2351500087092,14.0,진주시,128.269370352172,지수면 정보센터,,,,,,0,false,[  ],,,,,,,,,지수면,INFO_CENTER,2016-02-09T15:35:51.322Z
56ba0757c7d621dd306f0a25,,[  ],경상남도 진주시 진성면 동부로 1329,경상남도,KR,대한민국,2016-02-09T15:35:51.323Z,,,,,,1329,[  ],,,35.1852943219677,14.0,진주시,128.223548538397,진성면 정보센터,,,,,,0,false,[  ],,,,,,,,,진성면,INFO_CENTER,2016-02-09T15:35:51.323Z
56ba0757c7d621dd306f0a26,,[  ],경상남도 진주시 집현면 진산로 697,경상남도,KR,대한민국,2016-02-09T15:35:51.323Z,,,,,,697,[  ],,,35.2393005055745,14.0,진주시,128.086678282325,집현면 정보센터,,,,,,0,false,[  ],,,,,,,,,집현면,INFO_CENTER,2016-02-09T15:35:51.323Z
56ba0757c7d621dd306f0a2a,,[  ],"경상남도 진주시 평거동,경상남도 진주시 평거동  796,경상남도 진주시 새평거로 55 판문동 다목적 주민센터",경상남도,KR,대한민국,2016-02-09T15:35:51.326Z,,,,,,796,[  ],,,35.16683435190479,14.0,진주시,128.0545374378562,판문동 정보센터,,,,,,0,false,[  ],,,,,,,,,평거동,INFO_CENTER,2016-04-13T02:51:52.430Z
56ba0757c7d621dd306f0a31,,[  ],경상남도 창녕군 남지읍 낙동로 483,경상남도,KR,대한민국,2016-02-09T15:35:51.331Z,,,,,,483,[  ],,,35.3890624728551,14.0,창녕군,128.477204155086,남지읍 정보센터,,,,,,0,false,[  ],,,,,,,,,남지읍,INFO_CENTER,2016-02-09T15:35:51.331Z
56ba0757c7d621dd306f0a32,,[  ],경상남도 창녕군 대지면 우포2로 975,경상남도,KR,대한민국,2016-02-09T15:35:51.332Z,,,,,,975,[  ],,,35.5556175699436,14.0,창녕군,128.467474738229,대지면 정보센터,,,,,,0,false,[  ],,,,,,,,,대지면,INFO_CENTER,2016-02-09T15:35:51.332Z
56ba0757c7d621dd306f0a37,,[  ],경상남도 창녕군 영산면 로터리길 15,경상남도,KR,대한민국,2016-02-09T15:35:51.336Z,,,,,,15,[  ],,,35.4536326457238,14.0,창녕군,128.5279211337,영산면 정보센터,,,,,,0,false,[  ],,,,,,,,,영산면,INFO_CENTER,2016-02-09T15:35:51.336Z
56ba0757c7d621dd306f0a39,,[  ],경상남도 창녕군 이방면 이방로 639,경상남도,KR,대한민국,2016-02-09T15:35:51.337Z,,,,,,639,[  ],,,35.577155001431,14.0,창녕군,128.387855843298,이방면 정보센터,,,,,,0,false,[  ],,,,,,,,,이방면,INFO_CENTER,2016-02-09T15:35:51.337Z
56ba0757c7d621dd306f0a5e,,[  ],경상남도 창원시 성산구 대암로 109,경상남도,KR,대한민국,2016-02-09T15:35:51.375Z,,,,,,109,[  ],,,35.2159016580224,14.0,창원시,128.708705888859,사파동 정보센터,,,,,,0,false,[  ],,,,,,,,,사파동,INFO_CENTER,2016-02-09T15:35:51.375Z
56ba0757c7d621dd306f0a60,,[  ],경상남도 창원시 성산구 공단로 735,경상남도,KR,대한민국,2016-02-09T15:35:51.377Z,,,,,,735,[  ],,,35.1890041791409,14.0,창원시,128.695223544565,성주동 정보센터,,,,,,0,false,[  ],,,,,,,,,성주동,INFO_CENTER,2016-02-09T15:35:51.377Z
56ba0757c7d621dd306f0a62,,[  ],경상남도 창원시 성산구 외동반림로 5,경상남도,KR,대한민국,2016-02-09T15:35:51.379Z,,,,,,5,[  ],,,35.2210554312334,14.0,창원시,128.673705629774,중앙동 정보센터,,,,,,0,false,[  ],,,,,,,,,중앙동,INFO_CENTER,2016-02-09T15:35:51.379Z
56ba0757c7d621dd306f0a7a,,[  ],경상남도 통영시 광도면 노산길 115,경상남도,KR,대한민국,2016-02-09T15:35:51.400Z,,,,,,115,[  ],,,34.8997766788837,14.0,통영시,128.406932496424,광도면 정보센터,,,,,,0,false,[  ],,,,,,,,,광도면,INFO_CENTER,2016-02-09T15:35:51.400Z
56ba0757c7d621dd306f0a84,,[  ],경상남도 통영시 욕지면 중촌길 193,경상남도,KR,대한민국,2016-02-09T15:35:51.408Z,,,,,,193,[  ],,,34.6364833986704,14.0,통영시,128.263271768709,욕지면 정보센터,,,,,,0,false,[  ],,,,,,,,,욕지면,INFO_CENTER,2016-02-09T15:35:51.408Z
56ba0757c7d621dd306f0a85,,[  ],경상남도 통영시 용남면 달포큰길 28,경상남도,KR,대한민국,2016-02-09T15:35:51.409Z,,,,,,28,[  ],,,34.8676418565408,14.0,통영시,128.442437185425,용남면 정보센터,,,,,,0,false,[  ],,,,,,,,,용남면,INFO_CENTER,2016-02-09T15:35:51.409Z
56ba0757c7d621dd306f0a9a,,[  ],경상남도 함안군 산인면 가야로 211,경상남도,KR,대한민국,2016-02-09T15:35:51.426Z,,,,,,211,[  ],,,35.2794989973936,14.0,함안군,128.424197215826,산인면 정보센터,,,,,,0,false,[  ],,,,,,,,,산인면,INFO_CENTER,2016-02-09T15:35:51.426Z
56ba0757c7d621dd306f0aa3,,[  ],경상남도 함양군 서상면 서상로 308,경상남도,KR,대한민국,2016-02-09T15:35:51.435Z,,,,,,308,[  ],,,35.6833679140117,14.0,함양군,127.685917471302,서상면 정보센터,,,,,,0,false,[  ],,,,,,,,,서상면,INFO_CENTER,2016-02-09T15:35:51.435Z
56ba0757c7d621dd306f0aa8,,[  ],경상남도 함양군 지곡면 함양로 1882,경상남도,KR,대한민국,2016-02-09T15:35:51.439Z,,,,,,1882,[  ],,,35.566312378606,14.0,함양군,127.77382921872,지곡면 정보센터,,,,,,0,false,[  ],,,,,,,,,지곡면,INFO_CENTER,2016-02-09T15:35:51.439Z
56ba0757c7d621dd306f0aa9,,[  ],경상남도 함양군 함양읍 학사루길 11,경상남도,KR,대한민국,2016-02-09T15:35:51.440Z,,,,,,11,[  ],,,35.5193322037907,14.0,함양군,127.726635765466,함양읍 정보센터,,,,,,0,false,[  ],,,,,,,,,함양읍,INFO_CENTER,2016-02-09T15:35:51.440Z
56ba0757c7d621dd306f0aaa,,[  ],경상남도 함양군 휴천면 목현옥매로 3,경상남도,KR,대한민국,2016-02-09T15:35:51.441Z,,,,,,3,[  ],,,35.4806848796328,14.0,함양군,127.750238345177,휴천면 정보센터,,,,,,0,false,[  ],,,,,,,,,휴천면,INFO_CENTER,2016-02-09T15:35:51.441Z
56ba0757c7d621dd306f0aac,,[  ],경상남도 합천군 가회면 황매산로 52,경상남도,KR,대한민국,2016-02-09T15:35:51.443Z,,,,,,52,[  ],,,35.4349748961665,14.0,합천군,128.033777310541,가회면 정보센터,,,,,,0,false,[  ],,,,,,,,,가회면,INFO_CENTER,2016-02-09T15:35:51.443Z
56ba0757c7d621dd306f0aad,,[  ],경상남도 합천군 대병면 신성동길 23,경상남도,KR,대한민국,2016-02-09T15:35:51.444Z,,,,,,23,[  ],,,35.5212602141261,14.0,합천군,128.014016220359,대병면 정보센터,,,,,,0,false,[  ],,,,,,,,,대병면,INFO_CENTER,2016-02-09T15:35:51.444Z
56ba0757c7d621dd306f0ab0,,[  ],경상남도 합천군 묘산면 묘산로 173,경상남도,KR,대한민국,2016-02-09T15:35:51.446Z,,,,,,173,[  ],,,35.6581327975772,14.0,합천군,128.113406783276,묘산면 정보센터,,,,,,0,false,[  ],,,,,,,,,묘산면,INFO_CENTER,2016-02-09T15:35:51.446Z
56ba0757c7d621dd306f0ab4,,[  ],경상남도 합천군 쌍책면 성산큰길 48,경상남도,KR,대한민국,2016-02-09T15:35:51.450Z,,,,,,48,[  ],,,35.5759672305613,14.0,합천군,128.282249049025,쌍책면 정보센터,,,,,,0,false,[  ],,,,,,,,,쌍책면,INFO_CENTER,2016-02-09T15:35:51.450Z
56ba0757c7d621dd306f0ab9,,[  ],경상남도 합천군 청덕면 동부로 1754,경상남도,KR,대한민국,2016-02-09T15:35:51.454Z,,,,,,1754,[  ],,,35.5590268695926,14.0,합천군,128.321392132919,청덕면 정보센터,,,,,,0,false,[  ],,,,,,,,,청덕면,INFO_CENTER,2016-02-09T15:35:51.454Z
56ba0757c7d621dd306f0abd,,[  ],경상북도 경산시 남산면 하남로 323,경상북도,KR,대한민국,2016-02-09T15:35:51.457Z,,,,,,323,[  ],,,35.7933598395611,14.0,경산시,128.837336467261,남산면 정보센터,,,,,,0,false,[  ],,,,,,,,,남산면,INFO_CENTER,2016-02-09T15:35:51.457Z
56ba0757c7d621dd306f0ac4,,[  ],경상북도 경산시 와촌면 금송로 416,경상북도,KR,대한민국,2016-02-09T15:35:51.463Z,,,,,,416,[  ],,,35.9463299059815,14.0,경산시,128.836515129997,와촌면 정보센터,,,,,,0,false,[  ],,,,,,,,,와촌면,INFO_CENTER,2016-02-09T15:35:51.463Z
56ba0757c7d621dd306f0ac5,,[  ],경상북도 경산시 용성면 원효로 1423,경상북도,KR,대한민국,2016-02-09T15:35:51.464Z,,,,,,1423,[  ],,,35.7933118448152,14.0,경산시,128.87591367329,용성면 정보센터,,,,,,0,false,[  ],,,,,,,,,용성면,INFO_CENTER,2016-02-09T15:35:51.464Z
56ba0757c7d621dd306f0acd,,[  ],경상북도 경주시 건천읍 내서로 1106,경상북도,KR,대한민국,2016-02-09T15:35:51.471Z,,,,,,1106,[  ],,,35.849824483134,14.0,경주시,129.102342658586,건천읍 정보센터,,,,,,0,false,[  ],,,,,,,,,건천읍,INFO_CENTER,2016-02-09T15:35:51.471Z
56ba0757c7d621dd306f0ae5,,[  ],경상북도 고령군 덕곡면 덕운로 570,경상북도,KR,대한민국,2016-02-09T15:35:51.492Z,,,,,,570,[  ],,,35.7793481692794,14.0,고령군,128.233001791893,덕곡면 정보센터,,,,,,0,false,[  ],,,,,,,,,덕곡면,INFO_CENTER,2016-02-09T15:35:51.492Z
56ba0757c7d621dd306f0ae6,,[  ],경상북도 고령군 성산면 성산로 897,경상북도,KR,대한민국,2016-02-09T15:35:51.493Z,,,,,,897,[  ],,,35.7498215956234,14.0,고령군,128.360043771631,성산면 정보센터,,,,,,0,false,[  ],,,,,,,,,성산면,INFO_CENTER,2016-02-09T15:35:51.493Z
56ba0757c7d621dd306f0ae9,,[  ],경상북도 고령군 운수면 운용로 106,경상북도,KR,대한민국,2016-02-09T15:35:51.496Z,,,,,,106,[  ],,,35.7690662780473,14.0,고령군,128.290472563331,운수면 정보센터,,,,,,0,false,[  ],,,,,,,,,운수면,INFO_CENTER,2016-02-09T15:35:51.496Z
56ba0757c7d621dd306f0aee,,[  ],경상북도 구미시 도개면 도안로 103,경상북도,KR,대한민국,2016-02-09T15:35:51.500Z,,,,,,103,[  ],,,36.2992731832745,14.0,구미시,128.33074561571,도개면 정보센터,,,,,,0,false,[  ],,,,,,,,,도개면,INFO_CENTER,2016-02-09T15:35:51.500Z
56ba0757c7d621dd306f0af0,,[  ],경상북도 구미시 무을면 상무로 981,경상북도,KR,대한민국,2016-02-09T15:35:51.502Z,,,,,,981,[  ],,,36.2608586508039,14.0,구미시,128.197572448276,무을면 정보센터,,,,,,0,false,[  ],,,,,,,,,무을면,INFO_CENTER,2016-02-09T15:35:51.502Z
56ba0757c7d621dd306f0af3,,[  ],경상북도 구미시 상사서로 199,경상북도,KR,대한민국,2016-02-09T15:35:51.505Z,,,,,,,[  ],,,36.0997436231788,14.0,구미시,128.357859544774,상모사곡동 정보센터,,,,,,0,false,[  ],,,,,,,,,상모사곡동,INFO_CENTER,2016-02-09T15:35:51.505Z
56ba0757c7d621dd306f0aff,,[  ],경상북도 구미시 장천면 강동로 184,경상북도,KR,대한민국,2016-02-09T15:35:51.515Z,,,,,,184,[  ],,,36.1257963676318,14.0,구미시,128.495326449896,장천면 정보센터,,,,,,0,false,[  ],,,,,,,,,장천면,INFO_CENTER,2016-02-09T15:35:51.515Z
56ba0757c7d621dd306f0b02,,[  ],경상북도 구미시 해평면 강동로 1672,경상북도,KR,대한민국,2016-02-09T15:35:51.517Z,,,,,,1672,[  ],,,36.1998464097562,14.0,구미시,128.391326396893,해평면 정보센터,,,,,,0,false,[  ],,,,,,,,,해평면,INFO_CENTER,2016-02-09T15:35:51.517Z
56ba0757c7d621dd306f0b06,,[  ],경상북도 군위군 군위읍 중앙길 134,경상북도,KR,대한민국,2016-02-09T15:35:51.521Z,,,,,,134,[  ],,,36.2398590367609,14.0,군위군,128.568784740025,군위읍 정보센터,,,,,,0,false,[  ],,,,,,,,,군위읍,INFO_CENTER,2016-02-09T15:35:51.521Z
56ba0757c7d621dd306f0b09,,[  ],경상북도 군위군 소보면 송백로 1415,경상북도,KR,대한민국,2016-02-09T15:35:51.523Z,,,,,,1415,[  ],,,36.2551796887131,14.0,군위군,128.47515895132,소보면 정보센터,,,,,,0,false,[  ],,,,,,,,,소보면,INFO_CENTER,2016-02-09T15:35:51.523Z
56ba0757c7d621dd306f0b0a,,[  ],경상북도 군위군 우보면 이화길 105,경상북도,KR,대한민국,2016-02-09T15:35:51.524Z,,,,,,105,[  ],,,36.1950155603301,14.0,군위군,128.661801703316,우보면 정보센터,,,,,,0,false,[  ],,,,,,,,,우보면,INFO_CENTER,2016-02-09T15:35:51.524Z
56ba0757c7d621dd306f0b0d,,[  ],경상북도 김천시 감문면 감문로 1055,경상북도,KR,대한민국,2016-02-09T15:35:51.526Z,,,,,,1055,[  ],,,36.2143374148745,14.0,김천시,128.181343415427,감문면 정보센터,,,,,,0,false,[  ],,,,,,,,,감문면,INFO_CENTER,2016-02-09T15:35:51.526Z
56ba0757c7d621dd306f0b0e,,[  ],경상북도 김천시 감천면 금감로 1552,경상북도,KR,대한민국,2016-02-09T15:35:51.527Z,,,,,,1552,[  ],,,36.0658003493424,14.0,김천시,128.125712200118,감천면 정보센터,,,,,,0,false,[  ],,,,,,,,,감천면,INFO_CENTER,2016-02-09T15:35:51.527Z
56ba0757c7d621dd306f0b10,,[  ],경상북도 김천시 구성면 상좌원1길 10,경상북도,KR,대한민국,2016-02-09T15:35:51.529Z,,,,,,10,[  ],,,36.0325581653989,14.0,김천시,128.047730101259,구성면 정보센터,,,,,,0,false,[  ],,,,,,,,,구성면,INFO_CENTER,2016-02-09T15:35:51.529Z
56ba0757c7d621dd306f0b16,,[  ],경상북도 김천시 대항면 황악로 1563,경상북도,KR,대한민국,2016-02-09T15:35:51.534Z,,,,,,1563,[  ],,,36.1244971771857,14.0,김천시,128.022153968963,대항면 정보센터,,,,,,0,false,[  ],,,,,,,,,대항면,INFO_CENTER,2016-02-09T15:35:51.534Z
56ba0757c7d621dd306f0b18,,[  ],경상북도 김천시 부항면 부항로 834,경상북도,KR,대한민국,2016-02-09T15:35:51.535Z,,,,,,834,[  ],,,35.9900945887865,14.0,김천시,127.955297924607,부항면 정보센터,,,,,,0,false,[  ],,,,,,,,,부항면,INFO_CENTER,2016-02-09T15:35:51.535Z
56ba0757c7d621dd306f0b1b,,[  ],경상북도 김천시 어모면 어모로 279,경상북도,KR,대한민국,2016-02-09T15:35:51.538Z,,,,,,279,[  ],,,36.1802858995702,14.0,김천시,128.118966853067,어모면 정보센터,,,,,,0,false,[  ],,,,,,,,,어모면,INFO_CENTER,2016-02-09T15:35:51.538Z
56ba0757c7d621dd306f0b20,,[  ],경상북도 김천시 지례면 상부길 101,경상북도,KR,대한민국,2016-02-09T15:35:51.542Z,,,,,,101,[  ],,,35.984808069153,14.0,김천시,128.0266605517,지례면 정보센터,,,,,,0,false,[  ],,,,,,,,,지례면,INFO_CENTER,2016-02-09T15:35:51.542Z
56ba0757c7d621dd306f0b23,,[  ],경상북도 문경시 가은읍 가은로 123,경상북도,KR,대한민국,2016-02-09T15:35:51.545Z,,,,,,123,[  ],,,36.6426052442978,14.0,문경시,128.061729834213,가은읍 정보센터,,,,,,0,false,[  ],,,,,,,,,가은읍,INFO_CENTER,2016-02-09T15:35:51.545Z
56ba0757c7d621dd306f0b26,,[  ],경상북도 문경시 마성면 은성로 1661,경상북도,KR,대한민국,2016-02-09T15:35:51.548Z,,,,,,1661,[  ],,,36.6927418866375,14.0,문경시,128.116869159251,마성면 정보센터,,,,,,0,false,[  ],,,,,,,,,마성면,INFO_CENTER,2016-02-09T15:35:51.548Z
56ba0757c7d621dd306f0b28,,[  ],경상북도 문경시 산북면 금천로 586,경상북도,KR,대한민국,2016-02-09T15:35:51.550Z,,,,,,586,[  ],,,36.6560439145622,14.0,문경시,128.259444259915,산북면 정보센터,,,,,,0,false,[  ],,,,,,,,,산북면,INFO_CENTER,2016-02-09T15:35:51.550Z
56ba0757c7d621dd306f0b29,,[  ],경상북도 문경시 산양면 불암2길 8-5,경상북도,KR,대한민국,2016-02-09T15:35:51.551Z,,,,,,8-5,[  ],,,36.6117200903601,14.0,문경시,128.258928664079,산양면 정보센터,,,,,,0,false,[  ],,,,,,,,,산양면,INFO_CENTER,2016-02-09T15:35:51.551Z
56ba0757c7d621dd306f0b32,,[  ],경상북도 봉화군 물야면 문수로 991,경상북도,KR,대한민국,2016-02-09T15:35:51.558Z,,,,,,991,[  ],,,36.9751853963597,14.0,봉화군,128.735830841396,물야면 정보센터,,,,,,0,false,[  ],,,,,,,,,물야면,INFO_CENTER,2016-02-09T15:35:51.558Z
56ba0757c7d621dd306f0b33,,[  ],경상북도 봉화군 법전면 법전로 100,경상북도,KR,대한민국,2016-02-09T15:35:51.559Z,,,,,,100,[  ],,,36.9107342515124,14.0,봉화군,128.876981709293,법전면 정보센터,,,,,,0,false,[  ],,,,,,,,,법전면,INFO_CENTER,2016-02-09T15:35:51.559Z
56ba0757c7d621dd306f0b35,,[  ],경상북도 봉화군 봉화읍 내성로3길 9,경상북도,KR,대한민국,2016-02-09T15:35:51.561Z,,,,,,9,[  ],,,36.8876385698226,14.0,봉화군,128.739328869962,봉화읍 정보센터,,,,,,0,false,[  ],,,,,,,,,봉화읍,INFO_CENTER,2016-02-09T15:35:51.561Z
56ba0757c7d621dd306f0b36,,[  ],경상북도 봉화군 상운면 예봉로 1281,경상북도,KR,대한민국,2016-02-09T15:35:51.561Z,,,,,,1281,[  ],,,36.8337713061877,14.0,봉화군,128.755203589543,상운면 정보센터,,,,,,0,false,[  ],,,,,,,,,상운면,INFO_CENTER,2016-02-09T15:35:51.562Z
56ba0757c7d621dd306f0b37,,[  ],경상북도 봉화군 석포면 석포로1길 55,경상북도,KR,대한민국,2016-02-09T15:35:51.562Z,,,,,,55,[  ],,,37.0486624133899,14.0,봉화군,129.06519669419,석포면 정보센터,,,,,,0,false,[  ],,,,,,,,,석포면,INFO_CENTER,2016-02-09T15:35:51.562Z
56ba0757c7d621dd306f0b38,,[  ],경상북도 봉화군 소천면 소천로 1294,경상북도,KR,대한민국,2016-02-09T15:35:51.563Z,,,,,,1294,[  ],,,36.9376770716279,14.0,봉화군,129.00309903304,소천면 정보센터,,,,,,0,false,[  ],,,,,,,,,소천면,INFO_CENTER,2016-02-09T15:35:51.563Z
56ba0757c7d621dd306f0b3a,,[  ],경상북도 봉화군 춘양면 의양로5길 19,경상북도,KR,대한민국,2016-02-09T15:35:51.565Z,,,,,,19,[  ],,,36.9351288523159,14.0,봉화군,128.914881493744,춘양면 정보센터,,,,,,0,false,[  ],,,,,,,,,춘양면,INFO_CENTER,2016-02-09T15:35:51.565Z
56ba0757c7d621dd306f0b3c,,[  ],경상북도 상주시 공검면 비재로 1308,경상북도,KR,대한민국,2016-02-09T15:35:51.566Z,,,,,,1308,[  ],,,36.512006621934,14.0,상주시,128.158940403408,공검면 정보센터,,,,,,0,false,[  ],,,,,,,,,공검면,INFO_CENTER,2016-02-09T15:35:51.566Z
56ba0757c7d621dd306f0b44,,[  ],경상북도 상주시 모서면 중화로 901,경상북도,KR,대한민국,2016-02-09T15:35:51.574Z,,,,,,901,[  ],,,36.3425485329059,14.0,상주시,127.959918960462,모서면 정보센터,,,,,,0,false,[  ],,,,,,,,,모서면,INFO_CENTER,2016-02-09T15:35:51.574Z
56ba0757c7d621dd306f0b48,,[  ],경상북도 상주시 외남면 석단로 932,경상북도,KR,대한민국,2016-02-09T15:35:51.586Z,,,,,,932,[  ],,,36.3573141722294,14.0,상주시,128.08922751666,외남면 정보센터,,,,,,0,false,[  ],,,,,,,,,외남면,INFO_CENTER,2016-02-09T15:35:51.586Z
56ba0757c7d621dd306f0b4f,,[  ],경상북도 상주시 화남면 평온동관로 3,경상북도,KR,대한민국,2016-02-09T15:35:51.592Z,,,,,,3,[  ],,,36.4482514642576,14.0,상주시,127.905534646395,화남면 정보센터,,,,,,0,false,[  ],,,,,,,,,화남면,INFO_CENTER,2016-02-09T15:35:51.592Z
56ba0757c7d621dd306f0b51,,[  ],경상북도 상주시 화북면 문장로 1739,경상북도,KR,대한민국,2016-02-09T15:35:51.594Z,,,,,,1739,[  ],,,36.5632753862701,14.0,상주시,127.917214797014,화북면 정보센터,,,,,,0,false,[  ],,,,,,,,,화북면,INFO_CENTER,2016-02-09T15:35:51.594Z
56ba0757c7d621dd306f0b54,,[  ],경상북도 성주군 금수면 성주로 1883,경상북도,KR,대한민국,2016-02-09T15:35:51.596Z,,,,,,1883,[  ],,,35.9196034080178,14.0,성주군,128.175752286019,금수면 정보센터,,,,,,0,false,[  ],,,,,,,,,금수면,INFO_CENTER,2016-02-09T15:35:51.596Z
56ba0757c7d621dd306f0b59,,[  ],경상북도 성주군 수륜면 참별로 915,경상북도,KR,대한민국,2016-02-09T15:35:51.600Z,,,,,,915,[  ],,,35.8330298568637,14.0,성주군,128.192357690717,수륜면 정보센터,,,,,,0,false,[  ],,,,,,,,,수륜면,INFO_CENTER,2016-02-09T15:35:51.600Z
56ba0757c7d621dd306f0b5a,,[  ],경상북도 성주군 용암면 운용로 1031,경상북도,KR,대한민국,2016-02-09T15:35:51.601Z,,,,,,1031,[  ],,,35.8362962291773,14.0,성주군,128.33686079066,용암면 정보센터,,,,,,0,false,[  ],,,,,,,,,용암면,INFO_CENTER,2016-02-09T15:35:51.601Z
56ba0757c7d621dd306f0b5b,,[  ],경상북도 성주군 월항면 주산로 366,경상북도,KR,대한민국,2016-02-09T15:35:51.602Z,,,,,,366,[  ],,,35.94559633589,14.0,성주군,128.315781328042,월항면 정보센터,,,,,,0,false,[  ],,,,,,,,,월항면,INFO_CENTER,2016-02-09T15:35:51.602Z
56ba0757c7d621dd306f0b5c,,[  ],경상북도 성주군 초전면 대장길 107,경상북도,KR,대한민국,2016-02-09T15:35:51.603Z,,,,,,107,[  ],,,35.9745393354332,14.0,성주군,128.263356813834,초전면 정보센터,,,,,,0,false,[  ],,,,,,,,,초전면,INFO_CENTER,2016-02-09T15:35:51.603Z
56ba0757c7d621dd306f0b7b,,[  ],경상북도 영덕군 지품면 경동로 7153,경상북도,KR,대한민국,2016-02-09T15:35:51.629Z,,,,,,7153,[  ],,,36.4484330728682,14.0,영덕군,129.281834667072,지품면 정보센터,,,,,,0,false,[  ],,,,,,,,,지품면,INFO_CENTER,2016-02-09T15:35:51.629Z
56ba0757c7d621dd306f0b7f,,[  ],경상북도 영양군 수비면 한티로 503,경상북도,KR,대한민국,2016-02-09T15:35:51.632Z,,,,,,503,[  ],,,36.7652222046844,14.0,영양군,129.202562947284,수비면 정보센터,,,,,,0,false,[  ],,,,,,,,,수비면,INFO_CENTER,2016-02-09T15:35:51.632Z
56ba0757c7d621dd306f0b81,,[  ],경상북도 영양군 일월면 영양로 2419,경상북도,KR,대한민국,2016-02-09T15:35:51.634Z,,,,,,2419,[  ],,,36.702375715195,14.0,영양군,129.128761465357,일월면 정보센터,,,,,,0,false,[  ],,,,,,,,,일월면,INFO_CENTER,2016-02-09T15:35:51.634Z
56ba0757c7d621dd306f0b82,,[  ],경상북도 영양군 입암면 조기리길 10,경상북도,KR,대한민국,2016-02-09T15:35:51.635Z,,,,,,10,[  ],,,36.5930578263157,14.0,영양군,129.090268139684,입암면 정보센터,,,,,,0,false,[  ],,,,,,,,,입암면,INFO_CENTER,2016-02-09T15:35:51.635Z
56ba0757c7d621dd306f0b83,,[  ],경상북도 영양군 청기면 청기1길 9-6,경상북도,KR,대한민국,2016-02-09T15:35:51.635Z,,,,,,9-6,[  ],,,36.6611997339044,14.0,영양군,129.062363272438,청기면 정보센터,,,,,,0,false,[  ],,,,,,,,,청기면,INFO_CENTER,2016-02-09T15:35:51.635Z
56ba0757c7d621dd306f0b8f,,[  ],경상북도 영주시 이산면 이산로 201,경상북도,KR,대한민국,2016-02-09T15:35:51.646Z,,,,,,201,[  ],,,36.8217953016885,14.0,영주시,128.656505904329,이산면 정보센터,,,,,,0,false,[  ],,,,,,,,,이산면,INFO_CENTER,2016-02-09T15:35:51.646Z
56ba0757c7d621dd306f0b98,,[  ],경상북도 영천시 금호읍 금호로 153,경상북도,KR,대한민국,2016-02-09T15:35:51.653Z,,,,,,153,[  ],,,35.9333375955974,14.0,영천시,128.877644044929,금호읍 정보센터,,,,,,0,false,[  ],,,,,,,,,금호읍,INFO_CENTER,2016-02-09T15:35:51.653Z
56ba0757c7d621dd306f0b9c,,[  ],경상북도 영천시 북안면 운북로 1995,경상북도,KR,대한민국,2016-02-09T15:35:51.656Z,,,,,,1995,[  ],,,35.9155627100452,14.0,영천시,129.009307529785,북안면 정보센터,,,,,,0,false,[  ],,,,,,,,,북안면,INFO_CENTER,2016-02-09T15:35:51.656Z
56ba0757c7d621dd306f0ba0,,[  ],경상북도 영천시 임고면 포은로 491,경상북도,KR,대한민국,2016-02-09T15:35:51.660Z,,,,,,491,[  ],,,36.0215670553621,14.0,영천시,128.973760460214,임고면 정보센터,,,,,,0,false,[  ],,,,,,,,,임고면,INFO_CENTER,2016-02-09T15:35:51.660Z
56ba0757c7d621dd306f0ba1,,[  ],경상북도 영천시 자양면 포은로 1631,경상북도,KR,대한민국,2016-02-09T15:35:51.661Z,,,,,,1631,[  ],,,36.0782293039708,14.0,영천시,129.018540882955,자양면 정보센터,,,,,,0,false,[  ],,,,,,,,,자양면,INFO_CENTER,2016-02-09T15:35:51.661Z
56ba0757c7d621dd306f0ba3,,[  ],경상북도 영천시 청통면 금송로 978,경상북도,KR,대한민국,2016-02-09T15:35:51.662Z,,,,,,978,[  ],,,35.992120531826,14.0,영천시,128.823006566086,청통면 정보센터,,,,,,0,false,[  ],,,,,,,,,청통면,INFO_CENTER,2016-02-09T15:35:51.662Z
56ba0757c7d621dd306f0ba4,,[  ],경상북도 영천시 화남면 신화로 1197,경상북도,KR,대한민국,2016-02-09T15:35:51.663Z,,,,,,1197,[  ],,,36.0591433823638,14.0,영천시,128.88910326516,화남면 정보센터,,,,,,0,false,[  ],,,,,,,,,화남면,INFO_CENTER,2016-02-09T15:35:51.663Z
56ba0757c7d621dd306f0bb5,,[  ],경상북도 울릉군 울릉읍 도동길 158,경상북도,KR,대한민국,2016-02-09T15:35:51.679Z,,,,,,158,[  ],,,37.4851013376502,14.0,울릉군,130.903735831217,울릉읍 정보센터,,,,,,0,false,[  ],,,,,,,,,울릉읍,INFO_CENTER,2016-02-09T15:35:51.679Z
56ba0757c7d621dd306f0bbc,,[  ],경상북도 울진군 울진읍 읍내10길 19,경상북도,KR,대한민국,2016-02-09T15:35:51.685Z,,,,,,19,[  ],,,36.9971903853545,14.0,울진군,129.403004846572,울진읍 정보센터,,,,,,0,false,[  ],,,,,,,,,울진읍,INFO_CENTER,2016-02-09T15:35:51.685Z
56ba0757c7d621dd306f0bd3,,[  ],경상북도 청도군 각북면 헐티로 801,경상북도,KR,대한민국,2016-02-09T15:35:51.704Z,,,,,,801,[  ],,,35.6873035172197,14.0,청도군,128.589275108478,각북면 정보센터,,,,,,0,false,[  ],,,,,,,,,각북면,INFO_CENTER,2016-02-09T15:35:51.704Z
56ba0757c7d621dd306f0bd4,,[  ],경상북도 청도군 금천면 선암로 575,경상북도,KR,대한민국,2016-02-09T15:35:51.705Z,,,,,,575,[  ],,,35.6871829444044,14.0,청도군,128.892414431443,금천면 정보센터,,,,,,0,false,[  ],,,,,,,,,금천면,INFO_CENTER,2016-02-09T15:35:51.705Z
56ba0757c7d621dd306f0bd5,,[  ],경상북도 청도군 매전면 청려로 3693,경상북도,KR,대한민국,2016-02-09T15:35:51.706Z,,,,,,3693,[  ],,,35.6670664108658,14.0,청도군,128.855590922926,매전면 정보센터,,,,,,0,false,[  ],,,,,,,,,매전면,INFO_CENTER,2016-02-09T15:35:51.706Z
56ba0757c7d621dd306f0bd6,,[  ],경상북도 청도군 운문면 청려로 4707,경상북도,KR,대한민국,2016-02-09T15:35:51.707Z,,,,,,4707,[  ],,,35.7156115754618,14.0,청도군,128.913147924163,운문면 정보센터,,,,,,0,false,[  ],,,,,,,,,운문면,INFO_CENTER,2016-02-09T15:35:51.707Z
56ba0757c7d621dd306f0bd8,,[  ],경상북도 청도군 청도읍 청화로 137,경상북도,KR,대한민국,2016-02-09T15:35:51.709Z,,,,,,137,[  ],,,35.6454343919886,14.0,청도군,128.741281639748,청도읍 정보센터,,,,,,0,false,[  ],,,,,,,,,청도읍,INFO_CENTER,2016-02-09T15:35:51.709Z
56ba0757c7d621dd306f0bdb,,[  ],경상북도 청송군 부남면 대전로 119,경상북도,KR,대한민국,2016-02-09T15:35:51.711Z,,,,,,119,[  ],,,36.3445831633371,14.0,청송군,129.063370395162,부남면 정보센터,,,,,,0,false,[  ],,,,,,,,,부남면,INFO_CENTER,2016-02-09T15:35:51.711Z
56ba0757c7d621dd306f0bdf,,[  ],경상북도 청송군 청송읍 중앙로 253,경상북도,KR,대한민국,2016-02-09T15:35:51.714Z,,,,,,253,[  ],,,36.4342906102489,14.0,청송군,129.05667593155,청송읍 정보센터,,,,,,0,false,[  ],,,,,,,,,청송읍,INFO_CENTER,2016-02-09T15:35:51.714Z
56ba0757c7d621dd306f0be0,,[  ],경상북도 청송군 파천면 청송로 5544,경상북도,KR,대한민국,2016-02-09T15:35:51.715Z,,,,,,5544,[  ],,,36.4630311237715,14.0,청송군,129.037843444262,파천면 정보센터,,,,,,0,false,[  ],,,,,,,,,파천면,INFO_CENTER,2016-02-09T15:35:51.715Z
56ba0757c7d621dd306f0be1,,[  ],경상북도 청송군 현동면 청송로 2647,경상북도,KR,대한민국,2016-02-09T15:35:51.716Z,,,,,,2647,[  ],,,36.2906565127615,14.0,청송군,129.016882199695,현동면 정보센터,,,,,,0,false,[  ],,,,,,,,,현동면,INFO_CENTER,2016-02-09T15:35:51.716Z
56ba0757c7d621dd306f0be2,,[  ],경상북도 청송군 현서면 구산동로 27,경상북도,KR,대한민국,2016-02-09T15:35:51.717Z,,,,,,27,[  ],,,36.2759049959072,14.0,청송군,128.895974299481,현서면 정보센터,,,,,,0,false,[  ],,,,,,,,,현서면,INFO_CENTER,2016-02-09T15:35:51.717Z
56ba0757c7d621dd306f0be4,,[  ],경상북도 칠곡군 기산면 주산로 1213,경상북도,KR,대한민국,2016-02-09T15:35:51.719Z,,,,,,1213,[  ],,,35.9866240210222,14.0,칠곡군,128.382179300596,기산면 정보센터,,,,,,0,false,[  ],,,,,,,,,기산면,INFO_CENTER,2016-02-09T15:35:51.719Z
56ba0757c7d621dd306f0be7,,[  ],경상북도 칠곡군 석적읍 석적로 646,경상북도,KR,대한민국,2016-02-09T15:35:51.721Z,,,,,,646,[  ],,,36.0514099060886,14.0,칠곡군,128.409380646613,석적읍 정보센터,,,,,,0,false,[  ],,,,,,,,,석적읍,INFO_CENTER,2016-02-09T15:35:51.721Z
56ba0757c7d621dd306f0be9,,[  ],경상북도 칠곡군 왜관읍 2번도로길 16,경상북도,KR,대한민국,2016-02-09T15:35:51.723Z,,,,,,16,[  ],,,35.9889598911748,14.0,칠곡군,128.397726035504,왜관읍 정보센터,,,,,,0,false,[  ],,,,,,,,,왜관읍,INFO_CENTER,2016-02-09T15:35:51.723Z
56ba0757c7d621dd306f0bea,,[  ],경상북도 칠곡군 지천면 신동로 171,경상북도,KR,대한민국,2016-02-09T15:35:51.724Z,,,,,,171,[  ],,,35.9559550213513,14.0,칠곡군,128.490943153692,지천면 정보센터,,,,,,0,false,[  ],,,,,,,,,지천면,INFO_CENTER,2016-02-09T15:35:51.724Z
56ba0757c7d621dd306f0c37,,[  ],광주광역시 동구 금남로231 (금남로2가),광주광역시,KR,대한민국,2016-02-09T15:35:51.790Z,,,,,,,[  ],,,35.1490583222161,14.0,동구,126.917736955223,충장동 정보센터,,,,,,0,false,[  ],,,,,,,,,충장동,INFO_CENTER,2016-02-09T15:35:51.790Z
56ba0757c7d621dd306f0c69,,[  ],대구광역시 남구 장전 2길 5 (대명동),대구광역시,KR,대한민국,2016-02-09T15:35:51.841Z,,,,,,5,[  ],,,35.8403899106324,14.0,남구,128.576873781428,대명1동 정보센터,,,,,,0,false,[  ],,,,,,,,,대명1동,INFO_CENTER,2016-02-09T15:35:51.841Z
56ba0757c7d621dd306f0c8d,,[  ],대구광역시 달성군 다사읍 매곡로 7,대구광역시,KR,대한민국,2016-02-09T15:35:51.873Z,,,,,,7,[  ],,,35.8620224220343,14.0,달성군,128.454203175023,다사읍 정보센터,,,,,,0,false,[  ],,,,,,,,,다사읍,INFO_CENTER,2016-02-09T15:35:51.873Z
56ba0757c7d621dd306f0c9a,,[  ],대구광역시 동구신암남로 67,대구광역시,KR,대한민국,2016-02-09T15:35:51.884Z,,,,,,,[  ],,,35.8795861344661,14.0,동구신암남로,128.623141814078,신암3동 정보센터,,,,,,0,false,[  ],,,,,,,,,신암3동,INFO_CENTER,2016-02-09T15:35:51.884Z
56ba0757c7d621dd306f0c9f,,[  ],대구광역시 동구 동부로 30길 61-7,대구광역시,KR,대한민국,2016-02-09T15:35:51.889Z,,,,,,61-7,[  ],,,35.8717492746845,14.0,동구,128.62930603462,신천4동 정보센터,,,,,,0,false,[  ],,,,,,,,,신천4동,INFO_CENTER,2016-02-09T15:35:51.889Z
56ba0757c7d621dd306f0ca2,,[  ],대구광역시 동구 안심로 49길 98,대구광역시,KR,대한민국,2016-02-09T15:35:51.891Z,,,,,,98,[  ],,,35.8702820434015,14.0,동구,128.711221670587,안심3.4동 정보센터,,,,,,0,false,[  ],,,,,,,,,안심3.4동,INFO_CENTER,2016-02-09T15:35:51.891Z
56ba0757c7d621dd306f0cca,,[  ],대구광역시 서구 국채보상로 60길 6,대구광역시,KR,대한민국,2016-02-09T15:35:51.925Z,,,,,,6,[  ],,,35.8712199014258,14.0,서구,128.563644998895,평리2동 정보센터,,,,,,0,false,[  ],,,,,,,,,평리2동,INFO_CENTER,2016-02-09T15:35:51.925Z
56ba0757c7d621dd306f0cdc,,[  ],대구광역시 수성구 들안로 9길 56 (상동),대구광역시,KR,대한민국,2016-02-09T15:35:51.940Z,,,,,,56,[  ],,,35.8321274438684,14.0,수성구,128.615459544162,상동 정보센터,,,,,,0,false,[  ],,,,,,,,,상동,INFO_CENTER,2016-02-09T15:35:51.940Z
56ba0758c7d621dd306f0d5b,,[  ],부산광역시 기장군 장안읍 좌방길 5,부산광역시,KR,대한민국,2016-02-09T15:35:52.058Z,,,,,,5,[  ],,,35.3135206551863,14.0,기장군,129.2439946858,장안읍 정보센터,,,,,,0,false,[  ],,,,,,,,,장안읍,INFO_CENTER,2016-02-09T15:35:52.058Z
56ba0758c7d621dd306f0d5c,,[  ],부산광역시 기장군 정관면 용수로 4,부산광역시,KR,대한민국,2016-02-09T15:35:52.059Z,,,,,,4,[  ],,,35.3259781508127,14.0,기장군,129.179760991101,정관면 정보센터,,,,,,0,false,[  ],,,,,,,,,정관면,INFO_CENTER,2016-02-09T15:35:52.059Z
56ba0758c7d621dd306f0db4,,[  ],부산광역시 사상구 주례로10번길 15,부산광역시,KR,대한민국,2016-02-09T15:35:52.133Z,,,,,,,[  ],,,35.1501340847949,14.0,사상구,129.010436506625,주례2동 정보센터,,,,,,0,false,[  ],,,,,,,,,주례2동,INFO_CENTER,2016-02-09T15:35:52.133Z
56ba0758c7d621dd306f0e16,,[  ],서울특별시 강남구 영동대로65길 24,서울특별시,KR,대한민국,2016-02-09T15:35:52.217Z,,,,,,,[  ],,,37.5023060444229,14.0,강남구,127.064187116007,대치2동 정보센터,,,,,,0,false,[  ],,,,,,,,,대치2동,INFO_CENTER,2016-02-09T15:35:52.217Z
56ba0758c7d621dd306f0e22,,[  ],서울특별시 강남구 양재대로55길 14,서울특별시,KR,대한민국,2016-02-09T15:35:52.236Z,,,,,,,[  ],,,37.4918534272462,14.0,강남구,127.088028436778,일원1동 정보센터,,,,,,0,false,[  ],,,,,,,,,일원1동,INFO_CENTER,2016-02-09T15:35:52.236Z
56ba0758c7d621dd306f0e25,,[  ],서울특별시 강남구 압구정로79길 26,서울특별시,KR,대한민국,2016-02-09T15:35:52.239Z,,,,,,,[  ],,,37.5250905784806,14.0,강남구,127.049291906224,청담동 정보센터,,,,,,0,false,[  ],,,,,,,,,청담동,INFO_CENTER,2016-02-09T15:35:52.239Z
56ba0758c7d621dd306f0e5f,,[  ],서울특별시 관악구 봉천로 279-8,서울특별시,KR,대한민국,2016-02-09T15:35:52.287Z,,,,,,,[  ],,,37.4881765706678,14.0,관악구,126.93277656035,보라매동 정보센터,,,,,,0,false,[  ],,,,,,,,,보라매동,INFO_CENTER,2016-02-09T15:35:52.287Z
56ba0758c7d621dd306f0e67,,[  ],서울특별시 관악구 봉천로33나길 30,서울특별시,KR,대한민국,2016-02-09T15:35:52.293Z,,,,,,,[  ],,,37.4853056405892,14.0,관악구,126.942407956894,은천동 정보센터,,,,,,0,false,[  ],,,,,,,,,은천동,INFO_CENTER,2016-02-09T15:35:52.293Z
56ba0758c7d621dd306f0e6c,,[  ],서울특별시 관악구 관악로 40길 39,서울특별시,KR,대한민국,2016-02-09T15:35:52.297Z,,,,,,39,[  ],,,37.4918465421065,14.0,관악구,126.958627268425,청림동 정보센터,,,,,,0,false,[  ],,,,,,,,,청림동,INFO_CENTER,2016-02-09T15:35:52.297Z
56ba0758c7d621dd306f0ec8,,[  ],서울특별시 동작구 동작대로17길 28,서울특별시,KR,대한민국,2016-02-09T15:35:52.374Z,,,,,,,[  ],,,37.4830724568592,14.0,동작구,126.978771084154,사당1동 정보센터,,,,,,0,false,[  ],,,,,,,,,사당1동,INFO_CENTER,2016-02-09T15:35:52.374Z
56ba0758c7d621dd306f0ec9,,[  ],서울특별시 동작구 동작대로29길 52,서울특별시,KR,대한민국,2016-02-09T15:35:52.375Z,,,,,,,[  ],,,37.4887128542956,14.0,동작구,126.979253438821,사당2동 정보센터,,,,,,0,false,[  ],,,,,,,,,사당2동,INFO_CENTER,2016-02-09T15:35:52.375Z
56ba0758c7d621dd306f0ecb,,[  ],서울특별시 동작구 사당로16아길 6,서울특별시,KR,대한민국,2016-02-09T15:35:52.377Z,,,,,,,[  ],,,37.4809770146846,14.0,동작구,126.971635270282,사당4동 정보센터,,,,,,0,false,[  ],,,,,,,,,사당4동,INFO_CENTER,2016-02-09T15:35:52.377Z
56ba0758c7d621dd306f0ecc,,[  ],서울특별시 동작구 사당로2가길 219,서울특별시,KR,대한민국,2016-02-09T15:35:52.378Z,,,,,,,[  ],,,37.4856610502078,14.0,동작구,126.966979620617,사당5동 정보센터,,,,,,0,false,[  ],,,,,,,,,사당5동,INFO_CENTER,2016-02-09T15:35:52.378Z
56ba0758c7d621dd306f0ed1,,[  ],서울특별시 동작구 신대방길72,서울특별시,KR,대한민국,2016-02-09T15:35:52.382Z,,,,,,,[  ],,,37.4889435200227,14.0,동작구,126.910039169686,신대방1동 정보센터,,,,,,0,false,[  ],,,,,,,,,신대방1동,INFO_CENTER,2016-02-09T15:35:52.382Z
56ba0758c7d621dd306f0f04,,[  ],서울특별시 서초구 신반포로15길 16,서울특별시,KR,대한민국,2016-02-09T15:35:52.424Z,,,,,,,[  ],,,37.5045866794484,14.0,서초구,126.994471841149,반포2동 정보센터,,,,,,0,false,[  ],,,,,,,,,반포2동,INFO_CENTER,2016-02-09T15:35:52.424Z
56ba0758c7d621dd306f0f05,,[  ],서울특별시 서초구 신반포로23길 78,서울특별시,KR,대한민국,2016-02-09T15:35:52.425Z,,,,,,,[  ],,,37.5120217695726,14.0,서초구,127.005569425969,반포3동 정보센터,,,,,,0,false,[  ],,,,,,,,,반포3동,INFO_CENTER,2016-02-09T15:35:52.425Z
56ba0758c7d621dd306f0f07,,[  ],서울특별시 서초구 신반포로 10,서울특별시,KR,대한민국,2016-02-09T15:35:52.427Z,,,,,,,[  ],,,37.5004846122549,14.0,서초구,126.986094410321,반포본동 정보센터,,,,,,0,false,[  ],,,,,,,,,반포본동,INFO_CENTER,2016-02-09T15:35:52.427Z
56ba0758c7d621dd306f0f0a,,[  ],서울특별시 서초구 방배로10길 10-20,서울특별시,KR,대한민국,2016-02-09T15:35:52.429Z,,,,,,,[  ],,,37.4803172727838,14.0,서초구,126.999036729213,방배3동 정보센터,,,,,,0,false,[  ],,,,,,,,,방배3동,INFO_CENTER,2016-02-09T15:35:52.429Z
56ba0758c7d621dd306f0f0f,,[  ],서울특별시 서초구 반포대로10길 10,서울특별시,KR,대한민국,2016-02-09T15:35:52.443Z,,,,,,,[  ],,,37.4835818711539,14.0,서초구,127.012504974663,서초3동 정보센터,,,,,,0,false,[  ],,,,,,,,,서초3동,INFO_CENTER,2016-02-09T15:35:52.443Z
56ba0758c7d621dd306f0f12,,[  ],서울특별시 서초구 강남대로12길 44,서울특별시,KR,대한민국,2016-02-09T15:35:52.445Z,,,,,,,[  ],,,37.4706440308987,14.0,서초구,127.041284172069,양재2동 정보센터,,,,,,0,false,[  ],,,,,,,,,양재2동,INFO_CENTER,2016-02-09T15:35:52.445Z
56ba0758c7d621dd306f0f55,,[  ],"서울특별시 양천구 목2동,서울특별시 양천구 목동  530-6,서울특별시 양천구 목동중앙본로 120 목2동주민센터",서울특별시,KR,대한민국,2016-02-09T15:35:52.501Z,,,,,,530-6,[  ],,,37.54610797476926,14.0,양천구,126.87168996781112,목2동 정보센터,,,,,,0,false,[  ],,,,,,,,,목2동,INFO_CENTER,2016-04-13T02:49:25.791Z
56ba0758c7d621dd306f0f67,,[  ],서울특별시 영등포구 당산로235,서울특별시,KR,대한민국,2016-02-09T15:35:52.517Z,,,,,,,[  ],,,37.5347081990794,14.0,영등포구,126.902086915772,당산2동 정보센터,,,,,,0,false,[  ],,,,,,,,,당산2동,INFO_CENTER,2016-02-09T15:35:52.517Z
56ba0758c7d621dd306f0f6a,,[  ],서울특별시 영등포구 대림로197,서울특별시,KR,대한민국,2016-02-09T15:35:52.520Z,,,,,,,[  ],,,37.4983150527162,14.0,영등포구,126.898036178938,대림3동 정보센터,,,,,,0,false,[  ],,,,,,,,,대림3동,INFO_CENTER,2016-02-09T15:35:52.520Z
56ba0758c7d621dd306f0f6b,,[  ],서울특별시 영등포구 도영로7길 10,서울특별시,KR,대한민국,2016-02-09T15:35:52.521Z,,,,,,,[  ],,,37.5094929483364,14.0,영등포구,126.895998678645,도림동 정보센터,,,,,,0,false,[  ],,,,,,,,,도림동,INFO_CENTER,2016-02-09T15:35:52.521Z
